linear:
  x: 0.24631578947368427
  y: 0.0
  z: 0.0
angular:
  x: 0.0
  y: 0.0
  z: 0.9999999999999999
---
linear:
  x: 0.26000000000000006
  y: 0.0
  z: 0.0
angular:
  x: 0.0
  y: 0.0
  z: 0.9999999999999999
---
linear:
  x: 0.24631578947368427
  y: 0.0
  z: 0.0
angular:
  x: 0.0
  y: 0.0
  z: 0.9999999999999999
---
linear:
  x: 0.26000000000000006
  y: 0.0
  z: 0.0
angular:
  x: 0.0
  y: 0.0
  z: 0.9999999999999999
---
linear:
  x: 0.26000000000000006
  y: 0.0
  z: 0.0
angular:
  x: 0.0
  y: 0.0
  z: 0.9999999999999999
---
linear:
  x: 0.26000000000000006
  y: 0.0
  z: 0.0
angular:
  x: 0.0
  y: 0.0
  z: 0.9999999999999999
---
linear:
  x: 0.26000000000000006
  y: 0.0
  z: 0.0
angular:
  x: 0.0
  y: 0.0
  z: 0.894736842105263
---
linear:
  x: 0.26000000000000006
  y: 0.0
  z: 0.0
angular:
  x: 0.0
  y: 0.0
  z: 0.894736842105263
---
linear:
  x: 0.24631578947368427
  y: 0.0
  z: 0.0
angular:
  x: 0.0
  y: 0.0
  z: 0.894736842105263
---
linear:
  x: 0.24631578947368427
  y: 0.0
  z: 0.0
angular:
  x: 0.0
  y: 0.0
  z: 0.7894736842105262
---
linear:
  x: 0.26000000000000006
  y: 0.0
  z: 0.0
angular:
  x: 0.0
  y: 0.0
  z: 0.7894736842105262
---
linear:
  x: 0.26000000000000006
  y: 0.0
  z: 0.0
angular:
  x: 0.0
  y: 0.0
  z: 0.7894736842105262
---
linear:
  x: 0.26000000000000006
  y: 0.0
  z: 0.0
angular:
  x: 0.0
  y: 0.0
  z: 0.7894736842105262
---
linear:
  x: 0.26000000000000006
  y: 0.0
  z: 0.0
angular:
  x: 0.0
  y: 0.0
  z: 0.5789473684210525
---
linear:
  x: 0.26000000000000006
  y: 0.0
  z: 0.0
angular:
  x: 0.0
  y: 0.0
  z: 0.5789473684210525
---
linear:
  x: 0.26000000000000006
  y: 0.0
  z: 0.0
angular:
  x: 0.0
  y: 0.0
  z: 0.5789473684210525
---
linear:
  x: 0.24631578947368427
  y: 0.0
  z: 0.0
angular:
  x: 0.0
  y: 0.0
  z: 0.6842105263157894
---
linear:
  x: 0.26000000000000006
  y: 0.0
  z: 0.0
angular:
  x: 0.0
  y: 0.0
  z: 0.4736842105263157
---
linear:
  x: 0.26000000000000006
  y: 0.0
  z: 0.0
angular:
  x: 0.0
  y: 0.0
  z: 0.4736842105263157
---
linear:
  x: 0.26000000000000006
  y: 0.0
  z: 0.0
angular:
  x: 0.0
  y: 0.0
  z: 0.4736842105263157
---
linear:
  x: 0.26000000000000006
  y: 0.0
  z: 0.0
angular:
  x: 0.0
  y: 0.0
  z: 0.4736842105263157
---
linear:
  x: 0.26000000000000006
  y: 0.0
  z: 0.0
angular:
  x: 0.0
  y: 0.0
  z: 0.4736842105263157
---
linear:
  x: 0.26000000000000006
  y: 0.0
  z: 0.0
angular:
  x: 0.0
  y: 0.0
  z: 0.5789473684210525
---
linear:
  x: 0.26000000000000006
  y: 0.0
  z: 0.0
angular:
  x: 0.0
  y: 0.0
  z: 0.5789473684210525
---
linear:
  x: 0.26000000000000006
  y: 0.0
  z: 0.0
angular:
  x: 0.0
  y: 0.0
  z: 0.4736842105263157
---
linear:
  x: 0.26000000000000006
  y: 0.0
  z: 0.0
angular:
  x: 0.0
  y: 0.0
  z: 0.36842105263157887
---
linear:
  x: 0.26000000000000006
  y: 0.0
  z: 0.0
angular:
  x: 0.0
  y: 0.0
  z: 0.36842105263157887
---
linear:
  x: 0.26000000000000006
  y: 0.0
  z: 0.0
angular:
  x: 0.0
  y: 0.0
  z: 0.4736842105263157
---
linear:
  x: 0.26000000000000006
  y: 0.0
  z: 0.0
angular:
  x: 0.0
  y: 0.0
  z: 0.4736842105263157
---
linear:
  x: 0.26000000000000006
  y: 0.0
  z: 0.0
angular:
  x: 0.0
  y: 0.0
  z: 0.4736842105263157
---
linear:
  x: 0.26000000000000006
  y: 0.0
  z: 0.0
angular:
  x: 0.0
  y: 0.0
  z: 0.36842105263157887
---
linear:
  x: 0.26000000000000006
  y: 0.0
  z: 0.0
angular:
  x: 0.0
  y: 0.0
  z: 0.36842105263157887
---
linear:
  x: 0.26000000000000006
  y: 0.0
  z: 0.0
angular:
  x: 0.0
  y: 0.0
  z: 0.36842105263157887
---
linear:
  x: 0.26000000000000006
  y: 0.0
  z: 0.0
angular:
  x: 0.0
  y: 0.0
  z: 0.1578947368421052
---
linear:
  x: 0.26000000000000006
  y: 0.0
  z: 0.0
angular:
  x: 0.0
  y: 0.0
  z: 0.1578947368421052
---
linear:
  x: 0.26000000000000006
  y: 0.0
  z: 0.0
angular:
  x: 0.0
  y: 0.0
  z: 0.26315789473684204
---
linear:
  x: 0.26000000000000006
  y: 0.0
  z: 0.0
angular:
  x: 0.0
  y: 0.0
  z: 0.26315789473684204
---
linear:
  x: 0.26000000000000006
  y: 0.0
  z: 0.0
angular:
  x: 0.0
  y: 0.0
  z: 0.26315789473684204
---
linear:
  x: 0.24631578947368427
  y: 0.0
  z: 0.0
angular:
  x: 0.0
  y: 0.0
  z: 0.26315789473684204
---
linear:
  x: 0.26000000000000006
  y: 0.0
  z: 0.0
angular:
  x: 0.0
  y: 0.0
  z: 0.1578947368421052
---
linear:
  x: 0.26000000000000006
  y: 0.0
  z: 0.0
angular:
  x: 0.0
  y: 0.0
  z: 0.26315789473684204
---
linear:
  x: 0.26000000000000006
  y: 0.0
  z: 0.0
angular:
  x: 0.0
  y: 0.0
  z: 0.26315789473684204
---
linear:
  x: 0.24631578947368427
  y: 0.0
  z: 0.0
angular:
  x: 0.0
  y: 0.0
  z: 0.26315789473684204
---
linear:
  x: 0.26000000000000006
  y: 0.0
  z: 0.0
angular:
  x: 0.0
  y: 0.0
  z: 0.1578947368421052
---
linear:
  x: 0.26000000000000006
  y: 0.0
  z: 0.0
angular:
  x: 0.0
  y: 0.0
  z: 0.1578947368421052
---
linear:
  x: 0.26000000000000006
  y: 0.0
  z: 0.0
angular:
  x: 0.0
  y: 0.0
  z: 0.1578947368421052
---
linear:
  x: 0.24631578947368427
  y: 0.0
  z: 0.0
angular:
  x: 0.0
  y: 0.0
  z: 0.1578947368421052
---
linear:
  x: 0.26000000000000006
  y: 0.0
  z: 0.0
angular:
  x: 0.0
  y: 0.0
  z: 0.05263157894736836
---
linear:
  x: 0.26000000000000006
  y: 0.0
  z: 0.0
angular:
  x: 0.0
  y: 0.0
  z: 0.05263157894736836
---
linear:
  x: 0.24631578947368427
  y: 0.0
  z: 0.0
angular:
  x: 0.0
  y: 0.0
  z: 0.05263157894736836
---
linear:
  x: 0.24631578947368427
  y: 0.0
  z: 0.0
angular:
  x: 0.0
  y: 0.0
  z: 0.05263157894736836
---
linear:
  x: 0.24631578947368427
  y: 0.0
  z: 0.0
angular:
  x: 0.0
  y: 0.0
  z: 0.05263157894736836
---
linear:
  x: 0.26000000000000006
  y: 0.0
  z: 0.0
angular:
  x: 0.0
  y: 0.0
  z: 0.05263157894736836
---
linear:
  x: 0.24631578947368427
  y: 0.0
  z: 0.0
angular:
  x: 0.0
  y: 0.0
  z: 0.05263157894736836
---
linear:
  x: 0.24631578947368427
  y: 0.0
  z: 0.0
angular:
  x: 0.0
  y: 0.0
  z: 0.05263157894736836
---
linear:
  x: 0.26000000000000006
  y: 0.0
  z: 0.0
angular:
  x: 0.0
  y: 0.0
  z: -0.052631578947368474
---
linear:
  x: 0.24631578947368427
  y: 0.0
  z: 0.0
angular:
  x: 0.0
  y: 0.0
  z: 0.05263157894736836
---
linear:
  x: 0.24631578947368427
  y: 0.0
  z: 0.0
angular:
  x: 0.0
  y: 0.0
  z: 0.05263157894736836
---
linear:
  x: 0.24631578947368427
  y: 0.0
  z: 0.0
angular:
  x: 0.0
  y: 0.0
  z: 0.05263157894736836
---
linear:
  x: 0.26000000000000006
  y: 0.0
  z: 0.0
angular:
  x: 0.0
  y: 0.0
  z: 0.05263157894736836
---
linear:
  x: 0.24631578947368427
  y: 0.0
  z: 0.0
angular:
  x: 0.0
  y: 0.0
  z: 0.05263157894736836
---
linear:
  x: 0.24631578947368427
  y: 0.0
  z: 0.0
angular:
  x: 0.0
  y: 0.0
  z: 0.05263157894736836
---
linear:
  x: 0.24631578947368427
  y: 0.0
  z: 0.0
angular:
  x: 0.0
  y: 0.0
  z: 0.05263157894736836
---
linear:
  x: 0.26000000000000006
  y: 0.0
  z: 0.0
angular:
  x: 0.0
  y: 0.0
  z: 0.0
---
linear:
  x: 0.26000000000000006
  y: 0.0
  z: 0.0
angular:
  x: 0.0
  y: 0.0
  z: 0.0
---
linear:
  x: 0.26000000000000006
  y: 0.0
  z: 0.0
angular:
  x: 0.0
  y: 0.0
  z: 0.0
---
linear:
  x: 0.26000000000000006
  y: 0.0
  z: 0.0
angular:
  x: 0.0
  y: 0.0
  z: 0.0
---
linear:
  x: 0.26000000000000006
  y: 0.0
  z: 0.0
angular:
  x: 0.0
  y: 0.0
  z: 0.0
---
linear:
  x: 0.26000000000000006
  y: 0.0
  z: 0.0
angular:
  x: 0.0
  y: 0.0
  z: 0.0
---
linear:
  x: 0.26000000000000006
  y: 0.0
  z: 0.0
angular:
  x: 0.0
  y: 0.0
  z: 0.0
---
linear:
  x: 0.24631578947368427
  y: 0.0
  z: 0.0
angular:
  x: 0.0
  y: 0.0
  z: -0.052631578947368474
---
linear:
  x: 0.26000000000000006
  y: 0.0
  z: 0.0
angular:
  x: 0.0
  y: 0.0
  z: -0.052631578947368474
---
linear:
  x: 0.26000000000000006
  y: 0.0
  z: 0.0
angular:
  x: 0.0
  y: 0.0
  z: -0.052631578947368474
---
linear:
  x: 0.24631578947368427
  y: 0.0
  z: 0.0
angular:
  x: 0.0
  y: 0.0
  z: -0.052631578947368474
---
linear:
  x: 0.24631578947368427
  y: 0.0
  z: 0.0
angular:
  x: 0.0
  y: 0.0
  z: -0.052631578947368474
---
linear:
  x: 0.26000000000000006
  y: 0.0
  z: 0.0
angular:
  x: 0.0
  y: 0.0
  z: -0.052631578947368474
---
linear:
  x: 0.26000000000000006
  y: 0.0
  z: 0.0
angular:
  x: 0.0
  y: 0.0
  z: -0.052631578947368474
---
linear:
  x: 0.24631578947368427
  y: 0.0
  z: 0.0
angular:
  x: 0.0
  y: 0.0
  z: -0.052631578947368474
---
linear:
  x: 0.24631578947368427
  y: 0.0
  z: 0.0
angular:
  x: 0.0
  y: 0.0
  z: -0.052631578947368474
---
linear:
  x: 0.24631578947368427
  y: 0.0
  z: 0.0
angular:
  x: 0.0
  y: 0.0
  z: -0.052631578947368474
---
linear:
  x: 0.24631578947368427
  y: 0.0
  z: 0.0
angular:
  x: 0.0
  y: 0.0
  z: -0.052631578947368474
---
linear:
  x: 0.26000000000000006
  y: 0.0
  z: 0.0
angular:
  x: 0.0
  y: 0.0
  z: -0.052631578947368474
---
linear:
  x: 0.26000000000000006
  y: 0.0
  z: 0.0
angular:
  x: 0.0
  y: 0.0
  z: -0.052631578947368474
---
linear:
  x: 0.26000000000000006
  y: 0.0
  z: 0.0
angular:
  x: 0.0
  y: 0.0
  z: -0.052631578947368474
---
linear:
  x: 0.24631578947368427
  y: 0.0
  z: 0.0
angular:
  x: 0.0
  y: 0.0
  z: -0.052631578947368474
---
linear:
  x: 0.24631578947368427
  y: 0.0
  z: 0.0
angular:
  x: 0.0
  y: 0.0
  z: -0.052631578947368474
---
linear:
  x: 0.24631578947368427
  y: 0.0
  z: 0.0
angular:
  x: 0.0
  y: 0.0
  z: -0.052631578947368474
---
linear:
  x: 0.24631578947368427
  y: 0.0
  z: 0.0
angular:
  x: 0.0
  y: 0.0
  z: -0.052631578947368474
---
linear:
  x: 0.26000000000000006
  y: 0.0
  z: 0.0
angular:
  x: 0.0
  y: 0.0
  z: -0.052631578947368474
---
linear:
  x: 0.26000000000000006
  y: 0.0
  z: 0.0
angular:
  x: 0.0
  y: 0.0
  z: -0.052631578947368474
---
linear:
  x: 0.26000000000000006
  y: 0.0
  z: 0.0
angular:
  x: 0.0
  y: 0.0
  z: -0.052631578947368474
---
linear:
  x: 0.24631578947368427
  y: 0.0
  z: 0.0
angular:
  x: 0.0
  y: 0.0
  z: -0.052631578947368474
---
linear:
  x: 0.24631578947368427
  y: 0.0
  z: 0.0
angular:
  x: 0.0
  y: 0.0
  z: -0.052631578947368474
---
linear:
  x: 0.24631578947368427
  y: 0.0
  z: 0.0
angular:
  x: 0.0
  y: 0.0
  z: -0.052631578947368474
---
linear:
  x: 0.23263157894736847
  y: 0.0
  z: 0.0
angular:
  x: 0.0
  y: 0.0
  z: -0.052631578947368474
---
linear:
  x: 0.23263157894736847
  y: 0.0
  z: 0.0
angular:
  x: 0.0
  y: 0.0
  z: -0.052631578947368474
---
linear:
  x: 0.21894736842105267
  y: 0.0
  z: 0.0
angular:
  x: 0.0
  y: 0.0
  z: -0.052631578947368474
---
linear:
  x: 0.21894736842105267
  y: 0.0
  z: 0.0
angular:
  x: 0.0
  y: 0.0
  z: -0.052631578947368474
---
linear:
  x: 0.20526315789473687
  y: 0.0
  z: 0.0
angular:
  x: 0.0
  y: 0.0
  z: -0.052631578947368474
---
linear:
  x: 0.20526315789473687
  y: 0.0
  z: 0.0
angular:
  x: 0.0
  y: 0.0
  z: -0.052631578947368474
---
linear:
  x: 0.20526315789473687
  y: 0.0
  z: 0.0
angular:
  x: 0.0
  y: 0.0
  z: -0.052631578947368474
---
linear:
  x: 0.19157894736842107
  y: 0.0
  z: 0.0
angular:
  x: 0.0
  y: 0.0
  z: -0.052631578947368474
---
linear:
  x: 0.19157894736842107
  y: 0.0
  z: 0.0
angular:
  x: 0.0
  y: 0.0
  z: -0.052631578947368474
---
linear:
  x: 0.19157894736842107
  y: 0.0
  z: 0.0
angular:
  x: 0.0
  y: 0.0
  z: -0.052631578947368474
---
linear:
  x: 0.17789473684210527
  y: 0.0
  z: 0.0
angular:
  x: 0.0
  y: 0.0
  z: -0.052631578947368474
---
linear:
  x: 0.17789473684210527
  y: 0.0
  z: 0.0
angular:
  x: 0.0
  y: 0.0
  z: -0.052631578947368474
---
linear:
  x: 0.17789473684210527
  y: 0.0
  z: 0.0
angular:
  x: 0.0
  y: 0.0
  z: -0.052631578947368474
---
linear:
  x: 0.16421052631578947
  y: 0.0
  z: 0.0
angular:
  x: 0.0
  y: 0.0
  z: -0.052631578947368474
---
linear:
  x: 0.16421052631578947
  y: 0.0
  z: 0.0
angular:
  x: 0.0
  y: 0.0
  z: -0.052631578947368474
---
linear:
  x: 0.16421052631578947
  y: 0.0
  z: 0.0
angular:
  x: 0.0
  y: 0.0
  z: -0.052631578947368474
---
linear:
  x: 0.16421052631578947
  y: 0.0
  z: 0.0
angular:
  x: 0.0
  y: 0.0
  z: -0.052631578947368474
---
linear:
  x: 0.15052631578947367
  y: 0.0
  z: 0.0
angular:
  x: 0.0
  y: 0.0
  z: -0.052631578947368474
---
linear:
  x: 0.15052631578947367
  y: 0.0
  z: 0.0
angular:
  x: 0.0
  y: 0.0
  z: -0.052631578947368474
---
linear:
  x: 0.15052631578947367
  y: 0.0
  z: 0.0
angular:
  x: 0.0
  y: 0.0
  z: -0.052631578947368474
---
linear:
  x: 0.13684210526315788
  y: 0.0
  z: 0.0
angular:
  x: 0.0
  y: 0.0
  z: -0.052631578947368474
---
linear:
  x: 0.13684210526315788
  y: 0.0
  z: 0.0
angular:
  x: 0.0
  y: 0.0
  z: -0.052631578947368474
---
linear:
  x: 0.13684210526315788
  y: 0.0
  z: 0.0
angular:
  x: 0.0
  y: 0.0
  z: -0.052631578947368474
---
linear:
  x: 0.12315789473684209
  y: 0.0
  z: 0.0
angular:
  x: 0.0
  y: 0.0
  z: -0.052631578947368474
---
linear:
  x: 0.12315789473684209
  y: 0.0
  z: 0.0
angular:
  x: 0.0
  y: 0.0
  z: -0.052631578947368474
---
linear:
  x: 0.12315789473684209
  y: 0.0
  z: 0.0
angular:
  x: 0.0
  y: 0.0
  z: -0.052631578947368474
---
linear:
  x: 0.12315789473684209
  y: 0.0
  z: 0.0
angular:
  x: 0.0
  y: 0.0
  z: -0.052631578947368474
---
linear:
  x: 0.12315789473684209
  y: 0.0
  z: 0.0
angular:
  x: 0.0
  y: 0.0
  z: -0.052631578947368474
---
linear:
  x: 0.20526315789473687
  y: 0.0
  z: 0.0
angular:
  x: 0.0
  y: 0.0
  z: -0.052631578947368474
---
linear:
  x: 0.20526315789473687
  y: 0.0
  z: 0.0
angular:
  x: 0.0
  y: 0.0
  z: -0.052631578947368474
---
linear:
  x: 0.19157894736842107
  y: 0.0
  z: 0.0
angular:
  x: 0.0
  y: 0.0
  z: -0.052631578947368474
---
linear:
  x: 0.19157894736842107
  y: 0.0
  z: 0.0
angular:
  x: 0.0
  y: 0.0
  z: -0.052631578947368474
---
linear:
  x: 0.17789473684210527
  y: 0.0
  z: 0.0
angular:
  x: 0.0
  y: 0.0
  z: -0.052631578947368474
---
linear:
  x: 0.17789473684210527
  y: 0.0
  z: 0.0
angular:
  x: 0.0
  y: 0.0
  z: -0.052631578947368474
---
linear:
  x: 0.16421052631578947
  y: 0.0
  z: 0.0
angular:
  x: 0.0
  y: 0.0
  z: -0.052631578947368474
---
linear:
  x: 0.16421052631578947
  y: 0.0
  z: 0.0
angular:
  x: 0.0
  y: 0.0
  z: -0.052631578947368474
---
linear:
  x: 0.16421052631578947
  y: 0.0
  z: 0.0
angular:
  x: 0.0
  y: 0.0
  z: -0.052631578947368474
---
linear:
  x: 0.16421052631578947
  y: 0.0
  z: 0.0
angular:
  x: 0.0
  y: 0.0
  z: -0.052631578947368474
---
linear:
  x: 0.15052631578947367
  y: 0.0
  z: 0.0
angular:
  x: 0.0
  y: 0.0
  z: -0.052631578947368474
---
linear:
  x: 0.15052631578947367
  y: 0.0
  z: 0.0
angular:
  x: 0.0
  y: 0.0
  z: -0.052631578947368474
---
linear:
  x: 0.15052631578947367
  y: 0.0
  z: 0.0
angular:
  x: 0.0
  y: 0.0
  z: -0.052631578947368474
---
linear:
  x: 0.15052631578947367
  y: 0.0
  z: 0.0
angular:
  x: 0.0
  y: 0.0
  z: -0.052631578947368474
---
linear:
  x: 0.13684210526315788
  y: 0.0
  z: 0.0
angular:
  x: 0.0
  y: 0.0
  z: -0.052631578947368474
---
linear:
  x: 0.13684210526315788
  y: 0.0
  z: 0.0
angular:
  x: 0.0
  y: 0.0
  z: -0.052631578947368474
---
linear:
  x: 0.13684210526315788
  y: 0.0
  z: 0.0
angular:
  x: 0.0
  y: 0.0
  z: -0.052631578947368474
---
linear:
  x: 0.13684210526315788
  y: 0.0
  z: 0.0
angular:
  x: 0.0
  y: 0.0
  z: 0.0
---
linear:
  x: 0.13684210526315788
  y: 0.0
  z: 0.0
angular:
  x: 0.0
  y: 0.0
  z: 0.0
---
linear:
  x: 0.13684210526315788
  y: 0.0
  z: 0.0
angular:
  x: 0.0
  y: 0.0
  z: 0.0
---
linear:
  x: 0.0
  y: 0.0
  z: 0.0
angular:
  x: 0.0
  y: 0.0
  z: -0.1578947368421053
---
linear:
  x: 0.0
  y: 0.0
  z: 0.0
angular:
  x: 0.0
  y: 0.0
  z: -0.1578947368421053
---
linear:
  x: 0.0
  y: 0.0
  z: 0.0
angular:
  x: 0.0
  y: 0.0
  z: -0.1578947368421053
---
linear:
  x: 0.0
  y: 0.0
  z: 0.0
angular:
  x: 0.0
  y: 0.0
  z: -0.1578947368421053
---
linear:
  x: 0.0
  y: 0.0
  z: 0.0
angular:
  x: 0.0
  y: 0.0
  z: -0.1578947368421053
---
linear:
  x: 0.0
  y: 0.0
  z: 0.0
angular:
  x: 0.0
  y: 0.0
  z: -0.1578947368421053
---
linear:
  x: 0.0
  y: 0.0
  z: 0.0
angular:
  x: 0.0
  y: 0.0
  z: -0.1578947368421053
---
linear:
  x: 0.0
  y: 0.0
  z: 0.0
angular:
  x: 0.0
  y: 0.0
  z: -0.1578947368421053
---
linear:
  x: 0.0
  y: 0.0
  z: 0.0
angular:
  x: 0.0
  y: 0.0
  z: -0.1578947368421053
---
linear:
  x: 0.0
  y: 0.0
  z: 0.0
angular:
  x: 0.0
  y: 0.0
  z: -0.1578947368421053
---
linear:
  x: 0.0
  y: 0.0
  z: 0.0
angular:
  x: 0.0
  y: 0.0
  z: -0.1578947368421053
---
linear:
  x: 0.0
  y: 0.0
  z: 0.0
angular:
  x: 0.0
  y: 0.0
  z: -0.1578947368421053
---
