header:
  stamp:
    sec: 27
    nanosec: 422000000
  frame_id: map
polygon:
  points:
  - x: -1.7338383197784424
    y: -0.39521121978759766
    z: 0.0
  - x: -1.7868815660476685
    y: -0.315595418214798
    z: 0.0
  - x: -1.8591504096984863
    y: -0.26927390694618225
    z: 0.0
  - x: -1.9436445236206055
    y: -0.25413447618484497
    z: 0.0
  - x: -2.027500629425049
    y: -0.2724819481372833
    z: 0.0
  - x: -2.1162805557250977
    y: -0.32952743768692017
    z: 0.0
  - x: -2.162602186203003
    y: -0.40179622173309326
    z: 0.0
  - x: -2.177741527557373
    y: -0.4862903654575348
    z: 0.0
  - x: -2.1593940258026123
    y: -0.570146381855011
    z: 0.0
  - x: -2.102348566055298
    y: -0.6589263677597046
    z: 0.0
  - x: -2.0300798416137695
    y: -0.7052478790283203
    z: 0.0
  - x: -1.9455856084823608
    y: -0.72038733959198
    z: 0.0
  - x: -1.861729621887207
    y: -0.7020398378372192
    z: 0.0
  - x: -1.7729495763778687
    y: -0.6449943780899048
    z: 0.0
  - x: -1.726628065109253
    y: -0.5727255940437317
    z: 0.0
  - x: -1.7114886045455933
    y: -0.48823145031929016
    z: 0.0
---
header:
  stamp:
    sec: 27
    nanosec: 424000000
  frame_id: map
polygon:
  points:
  - x: -1.7328757047653198
    y: -0.3920554518699646
    z: 0.0
  - x: -1.7867883443832397
    y: -0.3130258023738861
    z: 0.0
  - x: -1.859560489654541
    y: -0.2674991190433502
    z: 0.0
  - x: -1.9442155361175537
    y: -0.2532866299152374
    z: 0.0
  - x: -2.027865409851074
    y: -0.2725520730018616
    z: 0.0
  - x: -2.1160149574279785
    y: -0.3305671811103821
    z: 0.0
  - x: -2.16154146194458
    y: -0.40333932638168335
    z: 0.0
  - x: -2.1757540702819824
    y: -0.48799431324005127
    z: 0.0
  - x: -2.1564886569976807
    y: -0.5716441869735718
    z: 0.0
  - x: -2.09847354888916
    y: -0.6597936153411865
    z: 0.0
  - x: -2.0257012844085693
    y: -0.7053202986717224
    z: 0.0
  - x: -1.9410463571548462
    y: -0.7195327877998352
    z: 0.0
  - x: -1.8573964834213257
    y: -0.7002673149108887
    z: 0.0
  - x: -1.769247055053711
    y: -0.6422522664070129
    z: 0.0
  - x: -1.7237203121185303
    y: -0.5694801211357117
    z: 0.0
  - x: -1.7095078229904175
    y: -0.48482513427734375
    z: 0.0
---
header:
  stamp:
    sec: 27
    nanosec: 442000000
  frame_id: map
polygon:
  points:
  - x: -1.7291052341461182
    y: -0.3816750645637512
    z: 0.0
  - x: -1.7856638431549072
    y: -0.3045167922973633
    z: 0.0
  - x: -1.859936237335205
    y: -0.26148104667663574
    z: 0.0
  - x: -1.945024013519287
    y: -0.25014400482177734
    z: 0.0
  - x: -2.0279734134674072
    y: -0.2722316384315491
    z: 0.0
  - x: -2.114107370376587
    y: -0.33319908380508423
    z: 0.0
  - x: -2.1571431159973145
    y: -0.4074714481830597
    z: 0.0
  - x: -2.168480157852173
    y: -0.4925592541694641
    z: 0.0
  - x: -2.146392345428467
    y: -0.5755085945129395
    z: 0.0
  - x: -2.0854249000549316
    y: -0.6616424918174744
    z: 0.0
  - x: -2.011152505874634
    y: -0.7046782374382019
    z: 0.0
  - x: -1.9260648488998413
    y: -0.7160152792930603
    z: 0.0
  - x: -1.8431154489517212
    y: -0.6939276456832886
    z: 0.0
  - x: -1.7569814920425415
    y: -0.6329602003097534
    z: 0.0
  - x: -1.713945746421814
    y: -0.5586878061294556
    z: 0.0
  - x: -1.7026087045669556
    y: -0.47360002994537354
    z: 0.0
---
header:
  stamp:
    sec: 99
    nanosec: 328000000
  frame_id: map
polygon:
  points:
  - x: -1.7217763662338257
    y: -0.36011388897895813
    z: 0.0
  - x: -1.783427357673645
    y: -0.28696051239967346
    z: 0.0
  - x: -1.8604421615600586
    y: -0.2490502893924713
    z: 0.0
  - x: -1.9461021423339844
    y: -0.24349810183048248
    z: 0.0
  - x: -2.0273663997650146
    y: -0.2711491882801056
    z: 0.0
  - x: -2.1091763973236084
    y: -0.33780649304389954
    z: 0.0
  - x: -2.1470866203308105
    y: -0.4148212671279907
    z: 0.0
  - x: -2.1526389122009277
    y: -0.5004812479019165
    z: 0.0
  - x: -2.1249876022338867
    y: -0.5817455053329468
    z: 0.0
  - x: -2.0583302974700928
    y: -0.6635555624961853
    z: 0.0
  - x: -1.9813156127929688
    y: -0.7014657855033875
    z: 0.0
  - x: -1.895655632019043
    y: -0.7070179581642151
    z: 0.0
  - x: -1.8143913745880127
    y: -0.6793668270111084
    z: 0.0
  - x: -1.732581377029419
    y: -0.6127095818519592
    z: 0.0
  - x: -1.6946711540222168
    y: -0.5356947779655457
    z: 0.0
  - x: -1.6891189813613892
    y: -0.4500347971916199
    z: 0.0
---
header:
  stamp:
    sec: 99
    nanosec: 581000000
  frame_id: map
polygon:
  points:
  - x: -1.7108601331710815
    y: -0.2836630642414093
    z: 0.0
  - x: -1.7879667282104492
    y: -0.22703415155410767
    z: 0.0
  - x: -1.8717306852340698
    y: -0.208270862698555
    z: 0.0
  - x: -1.9562989473342896
    y: -0.22299093008041382
    z: 0.0
  - x: -2.028796672821045
    y: -0.2689533531665802
    z: 0.0
  - x: -2.0926644802093506
    y: -0.35295921564102173
    z: 0.0
  - x: -2.1114275455474854
    y: -0.43672317266464233
    z: 0.0
  - x: -2.096707582473755
    y: -0.5212913751602173
    z: 0.0
  - x: -2.0507452487945557
    y: -0.5937891006469727
    z: 0.0
  - x: -1.966739296913147
    y: -0.6576568484306335
    z: 0.0
  - x: -1.8829753398895264
    y: -0.6764200925827026
    z: 0.0
  - x: -1.7984070777893066
    y: -0.6617000699043274
    z: 0.0
  - x: -1.7259094715118408
    y: -0.6157376170158386
    z: 0.0
  - x: -1.6620416641235352
    y: -0.5317317247390747
    z: 0.0
  - x: -1.6432783603668213
    y: -0.4479677975177765
    z: 0.0
  - x: -1.6579984426498413
    y: -0.36339959502220154
    z: 0.0
---
header:
  stamp:
    sec: 27
    nanosec: 910000000
  frame_id: map
polygon:
  points:
  - x: -1.7096915245056152
    y: -0.2602320611476898
    z: 0.0
  - x: -1.790454626083374
    y: -0.20895254611968994
    z: 0.0
  - x: -1.8752965927124023
    y: -0.19590245187282562
    z: 0.0
  - x: -1.9586743116378784
    y: -0.21631334722042084
    z: 0.0
  - x: -2.0278944969177246
    y: -0.26707786321640015
    z: 0.0
  - x: -2.0859291553497314
    y: -0.355214387178421
    z: 0.0
  - x: -2.0989792346954346
    y: -0.44005632400512695
    z: 0.0
  - x: -2.078568458557129
    y: -0.5234341025352478
    z: 0.0
  - x: -2.027803897857666
    y: -0.5926542282104492
    z: 0.0
  - x: -1.9396673440933228
    y: -0.6506889462471008
    z: 0.0
  - x: -1.8548253774642944
    y: -0.6637390851974487
    z: 0.0
  - x: -1.7714476585388184
    y: -0.6433281898498535
    z: 0.0
  - x: -1.7022274732589722
    y: -0.5925636887550354
    z: 0.0
  - x: -1.6441928148269653
    y: -0.5044271349906921
    z: 0.0
  - x: -1.6311427354812622
    y: -0.4195851981639862
    z: 0.0
  - x: -1.6515536308288574
    y: -0.33620738983154297
    z: 0.0
---
header:
  stamp:
    sec: 27
    nanosec: 910000000
  frame_id: map
polygon:
  points:
  - x: -1.7096915245056152
    y: -0.2602320611476898
    z: 0.0
  - x: -1.790454626083374
    y: -0.20895254611968994
    z: 0.0
  - x: -1.8752965927124023
    y: -0.19590245187282562
    z: 0.0
  - x: -1.9586743116378784
    y: -0.21631334722042084
    z: 0.0
  - x: -2.0278944969177246
    y: -0.26707786321640015
    z: 0.0
  - x: -2.0859291553497314
    y: -0.355214387178421
    z: 0.0
  - x: -2.0989792346954346
    y: -0.44005632400512695
    z: 0.0
  - x: -2.078568458557129
    y: -0.5234341025352478
    z: 0.0
  - x: -2.027803897857666
    y: -0.5926542282104492
    z: 0.0
  - x: -1.9396673440933228
    y: -0.6506889462471008
    z: 0.0
  - x: -1.8548253774642944
    y: -0.6637390851974487
    z: 0.0
  - x: -1.7714476585388184
    y: -0.6433281898498535
    z: 0.0
  - x: -1.7022274732589722
    y: -0.5925636887550354
    z: 0.0
  - x: -1.6441928148269653
    y: -0.5044271349906921
    z: 0.0
  - x: -1.6311427354812622
    y: -0.4195851981639862
    z: 0.0
  - x: -1.6515536308288574
    y: -0.33620738983154297
    z: 0.0
---
header:
  stamp:
    sec: 28
    nanosec: 66000000
  frame_id: map
polygon:
  points:
  - x: -1.7111396789550781
    y: -0.19462229311466217
    z: 0.0
  - x: -1.7997232675552368
    y: -0.15849453210830688
    z: 0.0
  - x: -1.8855342864990234
    y: -0.1607130914926529
    z: 0.0
  - x: -1.9639643430709839
    y: -0.19560123980045319
    z: 0.0
  - x: -2.023073196411133
    y: -0.2578475773334503
    z: 0.0
  - x: -2.064539909362793
    y: -0.3548866808414459
    z: 0.0
  - x: -2.062321424484253
    y: -0.4406977593898773
    z: 0.0
  - x: -2.027433156967163
    y: -0.5191278457641602
    z: 0.0
  - x: -1.9651868343353271
    y: -0.5782366991043091
    z: 0.0
  - x: -1.8681477308273315
    y: -0.6197033524513245
    z: 0.0
  - x: -1.782336711883545
    y: -0.6174848079681396
    z: 0.0
  - x: -1.7039066553115845
    y: -0.5825966596603394
    z: 0.0
  - x: -1.6447978019714355
    y: -0.5203503370285034
    z: 0.0
  - x: -1.6033310890197754
    y: -0.4233112335205078
    z: 0.0
  - x: -1.605549693107605
    y: -0.3375001549720764
    z: 0.0
  - x: -1.6404378414154053
    y: -0.2590700685977936
    z: 0.0
---
header:
  stamp:
    sec: 100
    nanosec: 111000000
  frame_id: map
polygon:
  points:
  - x: -1.717650055885315
    y: -0.11247459799051285
    z: 0.0
  - x: -1.8113737106323242
    y: -0.0932878628373146
    z: 0.0
  - x: -1.8953067064285278
    y: -0.11127997934818268
    z: 0.0
  - x: -1.9659653902053833
    y: -0.1600222885608673
    z: 0.0
  - x: -2.0125925540924072
    y: -0.23209421336650848
    z: 0.0
  - x: -2.035468816757202
    y: -0.33511242270469666
    z: 0.0
  - x: -2.017476797103882
    y: -0.4190453886985779
    z: 0.0
  - x: -1.9687345027923584
    y: -0.48970407247543335
    z: 0.0
  - x: -1.8966625928878784
    y: -0.536331295967102
    z: 0.0
  - x: -1.7936443090438843
    y: -0.559207558631897
    z: 0.0
  - x: -1.7097113132476807
    y: -0.5412154793739319
    z: 0.0
  - x: -1.6390526294708252
    y: -0.49247315526008606
    z: 0.0
  - x: -1.5924254655838013
    y: -0.4204012155532837
    z: 0.0
  - x: -1.5695492029190063
    y: -0.3173829913139343
    z: 0.0
  - x: -1.5875413417816162
    y: -0.2334500253200531
    z: 0.0
  - x: -1.6362836360931396
    y: -0.16279135644435883
    z: 0.0
---
header:
  stamp:
    sec: 100
    nanosec: 536000000
  frame_id: map
polygon:
  points:
  - x: -1.7384604215621948
    y: 0.01982014998793602
    z: 0.0
  - x: -1.8340821266174316
    y: 0.016859684139490128
    z: 0.0
  - x: -1.9115972518920898
    y: -0.020016569644212723
    z: 0.0
  - x: -1.969099998474121
    y: -0.08374956250190735
    z: 0.0
  - x: -1.9978361129760742
    y: -0.1646365225315094
    z: 0.0
  - x: -1.9963206052780151
    y: -0.2701532542705536
    z: 0.0
  - x: -1.959444284439087
    y: -0.3476684093475342
    z: 0.0
  - x: -1.8957113027572632
    y: -0.4051711857318878
    z: 0.0
  - x: -1.8148243427276611
    y: -0.43390724062919617
    z: 0.0
  - x: -1.7093076705932617
    y: -0.4323917627334595
    z: 0.0
  - x: -1.631792426109314
    y: -0.395515501499176
    z: 0.0
  - x: -1.5742896795272827
    y: -0.3317824900150299
    z: 0.0
  - x: -1.5455536842346191
    y: -0.25089555978775024
    z: 0.0
  - x: -1.5470691919326782
    y: -0.14537882804870605
    z: 0.0
  - x: -1.583945393562317
    y: -0.06786364316940308
    z: 0.0
  - x: -1.6476783752441406
    y: -0.010360886342823505
    z: 0.0
---
header:
  stamp:
    sec: 101
    nanosec: 32000000
  frame_id: map
polygon:
  points:
  - x: -1.7600826025009155
    y: 0.14397653937339783
    z: 0.0
  - x: -1.854471206665039
    y: 0.1283862441778183
    z: 0.0
  - x: -1.9264237880706787
    y: 0.08157499134540558
    z: 0.0
  - x: -1.9749853610992432
    y: 0.010791984386742115
    z: 0.0
  - x: -1.9927629232406616
    y: -0.07318669557571411
    z: 0.0
  - x: -1.9772952795028687
    y: -0.17757456004619598
    z: 0.0
  - x: -1.9304840564727783
    y: -0.24952709674835205
    z: 0.0
  - x: -1.8597010374069214
    y: -0.2980886697769165
    z: 0.0
  - x: -1.7757223844528198
    y: -0.31586626172065735
    z: 0.0
  - x: -1.6713345050811768
    y: -0.3003985583782196
    z: 0.0
  - x: -1.599381923675537
    y: -0.2535873055458069
    z: 0.0
  - x: -1.5508203506469727
    y: -0.18280431628227234
    z: 0.0
  - x: -1.5330427885055542
    y: -0.09882562607526779
    z: 0.0
  - x: -1.5485104322433472
    y: 0.005562236066907644
    z: 0.0
  - x: -1.5953216552734375
    y: 0.07751477509737015
    z: 0.0
  - x: -1.6661046743392944
    y: 0.1260763555765152
    z: 0.0
---
header:
  stamp:
    sec: 101
    nanosec: 529000000
  frame_id: map
polygon:
  points:
  - x: -1.7746474742889404
    y: 0.2745817005634308
    z: 0.0
  - x: -1.8680732250213623
    y: 0.2539932131767273
    z: 0.0
  - x: -1.937434196472168
    y: 0.20342126488685608
    z: 0.0
  - x: -1.982162356376648
    y: 0.13015559315681458
    z: 0.0
  - x: -1.995448112487793
    y: 0.04535023868083954
    z: 0.0
  - x: -1.9744502305984497
    y: -0.058067187666893005
    z: 0.0
  - x: -1.9238783121109009
    y: -0.1274281144142151
    z: 0.0
  - x: -1.8506126403808594
    y: -0.1721562147140503
    z: 0.0
  - x: -1.7658072710037231
    y: -0.1854420304298401
    z: 0.0
  - x: -1.662389874458313
    y: -0.16444414854049683
    z: 0.0
  - x: -1.5930289030075073
    y: -0.11387219280004501
    z: 0.0
  - x: -1.5483007431030273
    y: -0.04060652479529381
    z: 0.0
  - x: -1.5350149869918823
    y: 0.04419882968068123
    z: 0.0
  - x: -1.5560128688812256
    y: 0.14761625230312347
    z: 0.0
  - x: -1.6065847873687744
    y: 0.21697719395160675
    z: 0.0
  - x: -1.679850459098816
    y: 0.26170527935028076
    z: 0.0
---
header:
  stamp:
    sec: 102
    nanosec: 106000000
  frame_id: map
polygon:
  points:
  - x: -1.7871968746185303
    y: 0.4192819893360138
    z: 0.0
  - x: -1.8801480531692505
    y: 0.3966466784477234
    z: 0.0
  - x: -1.9483815431594849
    y: 0.34456363320350647
    z: 0.0
  - x: -1.9914898872375488
    y: 0.27033331990242004
    z: 0.0
  - x: -2.0029098987579346
    y: 0.18525663018226624
    z: 0.0
  - x: -1.9796459674835205
    y: 0.08232530206441879
    z: 0.0
  - x: -1.927562952041626
    y: 0.01409174781292677
    z: 0.0
  - x: -1.8533326387405396
    y: -0.029016517102718353
    z: 0.0
  - x: -1.7682559490203857
    y: -0.040436647832393646
    z: 0.0
  - x: -1.6653245687484741
    y: -0.017172595486044884
    z: 0.0
  - x: -1.5970909595489502
    y: 0.034910451620817184
    z: 0.0
  - x: -1.5539827346801758
    y: 0.10914076119661331
    z: 0.0
  - x: -1.5425626039505005
    y: 0.19421744346618652
    z: 0.0
  - x: -1.565826654434204
    y: 0.29714876413345337
    z: 0.0
  - x: -1.6179096698760986
    y: 0.3653823137283325
    z: 0.0
  - x: -1.692139983177185
    y: 0.4084905982017517
    z: 0.0
---
header:
  stamp:
    sec: 102
    nanosec: 477000000
  frame_id: map
polygon:
  points:
  - x: -1.7902588844299316
    y: 0.5145379900932312
    z: 0.0
  - x: -1.883458137512207
    y: 0.4929470419883728
    z: 0.0
  - x: -1.952271819114685
    y: 0.4416329264640808
    z: 0.0
  - x: -1.9962103366851807
    y: 0.36789101362228394
    z: 0.0
  - x: -2.0085842609405518
    y: 0.2829478085041046
    z: 0.0
  - x: -1.9864767789840698
    y: 0.17976193130016327
    z: 0.0
  - x: -1.9351626634597778
    y: 0.11094824969768524
    z: 0.0
  - x: -1.861420750617981
    y: 0.06700976938009262
    z: 0.0
  - x: -1.776477575302124
    y: 0.05463571846485138
    z: 0.0
  - x: -1.6732916831970215
    y: 0.07674332708120346
    z: 0.0
  - x: -1.6044780015945435
    y: 0.12805745005607605
    z: 0.0
  - x: -1.5605394840240479
    y: 0.20179937779903412
    z: 0.0
  - x: -1.5481654405593872
    y: 0.28674256801605225
    z: 0.0
  - x: -1.5702730417251587
    y: 0.3899284601211548
    z: 0.0
  - x: -1.6215871572494507
    y: 0.4587421417236328
    z: 0.0
  - x: -1.6953290700912476
    y: 0.5026805996894836
    z: 0.0
---
header:
  stamp:
    sec: 31
    nanosec: 129000000
  frame_id: map
polygon:
  points:
  - x: -1.7907873392105103
    y: 0.5493171811103821
    z: 0.0
  - x: -1.884095549583435
    y: 0.5282020568847656
    z: 0.0
  - x: -1.9531700611114502
    y: 0.4772396981716156
    z: 0.0
  - x: -1.9974842071533203
    y: 0.4037229120731354
    z: 0.0
  - x: -2.010291576385498
    y: 0.3188439607620239
    z: 0.0
  - x: -1.988710641860962
    y: 0.2155466228723526
    z: 0.0
  - x: -1.9377483129501343
    y: 0.1464720368385315
    z: 0.0
  - x: -1.8642315864562988
    y: 0.10215787589550018
    z: 0.0
  - x: -1.7793526649475098
    y: 0.08935058861970901
    z: 0.0
  - x: -1.6760553121566772
    y: 0.11093143373727798
    z: 0.0
  - x: -1.6069806814193726
    y: 0.1618937849998474
    z: 0.0
  - x: -1.5626665353775024
    y: 0.23541057109832764
    z: 0.0
  - x: -1.5498592853546143
    y: 0.3202895224094391
    z: 0.0
  - x: -1.5714401006698608
    y: 0.4235868752002716
    z: 0.0
  - x: -1.6224024295806885
    y: 0.4926614463329315
    z: 0.0
  - x: -1.695919156074524
    y: 0.536975622177124
    z: 0.0
---
header:
  stamp:
    sec: 102
    nanosec: 596000000
  frame_id: map
polygon:
  points:
  - x: -1.7907873392105103
    y: 0.5493171811103821
    z: 0.0
  - x: -1.884095549583435
    y: 0.5282020568847656
    z: 0.0
  - x: -1.9531700611114502
    y: 0.4772396981716156
    z: 0.0
  - x: -1.9974842071533203
    y: 0.4037229120731354
    z: 0.0
  - x: -2.010291576385498
    y: 0.3188439607620239
    z: 0.0
  - x: -1.988710641860962
    y: 0.2155466228723526
    z: 0.0
  - x: -1.9377483129501343
    y: 0.1464720368385315
    z: 0.0
  - x: -1.8642315864562988
    y: 0.10215787589550018
    z: 0.0
  - x: -1.7793526649475098
    y: 0.08935058861970901
    z: 0.0
  - x: -1.6760553121566772
    y: 0.11093143373727798
    z: 0.0
  - x: -1.6069806814193726
    y: 0.1618937849998474
    z: 0.0
  - x: -1.5626665353775024
    y: 0.23541057109832764
    z: 0.0
  - x: -1.5498592853546143
    y: 0.3202895224094391
    z: 0.0
  - x: -1.5714401006698608
    y: 0.4235868752002716
    z: 0.0
  - x: -1.6224024295806885
    y: 0.4926614463329315
    z: 0.0
  - x: -1.695919156074524
    y: 0.536975622177124
    z: 0.0
---
header:
  stamp:
    sec: 103
    nanosec: 70000000
  frame_id: map
polygon:
  points:
  - x: -1.7902735471725464
    y: 0.6599291563034058
    z: 0.0
  - x: -1.8839799165725708
    y: 0.6406578421592712
    z: 0.0
  - x: -1.9540458917617798
    y: 0.5910672545433044
    z: 0.0
  - x: -1.9998009204864502
    y: 0.518438458442688
    z: 0.0
  - x: -2.0142791271209717
    y: 0.43382853269577026
    z: 0.0
  - x: -1.9947391748428345
    y: 0.3301257789134979
    z: 0.0
  - x: -1.9451485872268677
    y: 0.26005983352661133
    z: 0.0
  - x: -1.8725197315216064
    y: 0.2143048346042633
    z: 0.0
  - x: -1.7879098653793335
    y: 0.19982655346393585
    z: 0.0
  - x: -1.6842070817947388
    y: 0.21936658024787903
    z: 0.0
  - x: -1.6141411066055298
    y: 0.2689571678638458
    z: 0.0
  - x: -1.568386197090149
    y: 0.3415859341621399
    z: 0.0
  - x: -1.553907871246338
    y: 0.42619588971138
    z: 0.0
  - x: -1.5734479427337646
    y: 0.5298986434936523
    z: 0.0
  - x: -1.623038411140442
    y: 0.5999645590782166
    z: 0.0
  - x: -1.6956672668457031
    y: 0.645719587802887
    z: 0.0
---
header:
  stamp:
    sec: 31
    nanosec: 485000000
  frame_id: map
polygon:
  points:
  - x: -1.7896662950515747
    y: 0.7129645347595215
    z: 0.0
  - x: -1.8835301399230957
    y: 0.6944750547409058
    z: 0.0
  - x: -1.9540070295333862
    y: 0.6454703211784363
    z: 0.0
  - x: -2.000365972518921
    y: 0.5732254981994629
    z: 0.0
  - x: -2.0155489444732666
    y: 0.4887391924858093
    z: 0.0
  - x: -1.996874213218689
    y: 0.38487711548805237
    z: 0.0
  - x: -1.9478694200515747
    y: 0.31440019607543945
    z: 0.0
  - x: -1.8756245374679565
    y: 0.26804134249687195
    z: 0.0
  - x: -1.7911382913589478
    y: 0.2528582215309143
    z: 0.0
  - x: -1.6872762441635132
    y: 0.2715330719947815
    z: 0.0
  - x: -1.6167993545532227
    y: 0.320537805557251
    z: 0.0
  - x: -1.570440411567688
    y: 0.39278265833854675
    z: 0.0
  - x: -1.5552573204040527
    y: 0.47726893424987793
    z: 0.0
  - x: -1.57393217086792
    y: 0.5811309814453125
    z: 0.0
  - x: -1.6229369640350342
    y: 0.6516079306602478
    z: 0.0
  - x: -1.6951817274093628
    y: 0.6979668140411377
    z: 0.0
---
header:
  stamp:
    sec: 31
    nanosec: 566000000
  frame_id: map
polygon:
  points:
  - x: -1.7882375717163086
    y: 0.7466946244239807
    z: 0.0
  - x: -1.882250189781189
    y: 0.7289775609970093
    z: 0.0
  - x: -1.9531276226043701
    y: 0.6805539727210999
    z: 0.0
  - x: -2.0000789165496826
    y: 0.6086927652359009
    z: 0.0
  - x: -2.015956401824951
    y: 0.5243341326713562
    z: 0.0
  - x: -1.998136043548584
    y: 0.420322060585022
    z: 0.0
  - x: -1.9497125148773193
    y: 0.34944459795951843
    z: 0.0
  - x: -1.8778512477874756
    y: 0.30249324440956116
    z: 0.0
  - x: -1.7934926748275757
    y: 0.2866159677505493
    z: 0.0
  - x: -1.6894805431365967
    y: 0.30443617701530457
    z: 0.0
  - x: -1.6186031103134155
    y: 0.352859765291214
    z: 0.0
  - x: -1.571651816368103
    y: 0.42472097277641296
    z: 0.0
  - x: -1.555774450302124
    y: 0.5090795755386353
    z: 0.0
  - x: -1.5735946893692017
    y: 0.6130916476249695
    z: 0.0
  - x: -1.6220183372497559
    y: 0.6839691400527954
    z: 0.0
  - x: -1.69387948513031
    y: 0.7309204936027527
    z: 0.0
---
header:
  stamp:
    sec: 103
    nanosec: 428000000
  frame_id: map
polygon:
  points:
  - x: -1.7882375717163086
    y: 0.7466946244239807
    z: 0.0
  - x: -1.882250189781189
    y: 0.7289775609970093
    z: 0.0
  - x: -1.9531276226043701
    y: 0.6805539727210999
    z: 0.0
  - x: -2.0000789165496826
    y: 0.6086927652359009
    z: 0.0
  - x: -2.015956401824951
    y: 0.5243341326713562
    z: 0.0
  - x: -1.998136043548584
    y: 0.420322060585022
    z: 0.0
  - x: -1.9497125148773193
    y: 0.34944459795951843
    z: 0.0
  - x: -1.8778512477874756
    y: 0.30249324440956116
    z: 0.0
  - x: -1.7934926748275757
    y: 0.2866159677505493
    z: 0.0
  - x: -1.6894805431365967
    y: 0.30443617701530457
    z: 0.0
  - x: -1.6186031103134155
    y: 0.352859765291214
    z: 0.0
  - x: -1.571651816368103
    y: 0.42472097277641296
    z: 0.0
  - x: -1.555774450302124
    y: 0.5090795755386353
    z: 0.0
  - x: -1.5735946893692017
    y: 0.6130916476249695
    z: 0.0
  - x: -1.6220183372497559
    y: 0.6839691400527954
    z: 0.0
  - x: -1.69387948513031
    y: 0.7309204936027527
    z: 0.0
---
header:
  stamp:
    sec: 103
    nanosec: 750000000
  frame_id: map
polygon:
  points:
  - x: -1.7858563661575317
    y: 0.8039542436599731
    z: 0.0
  - x: -1.8800734281539917
    y: 0.7873587608337402
    z: 0.0
  - x: -1.9515228271484375
    y: 0.7397832274436951
    z: 0.0
  - x: -1.9993271827697754
    y: 0.6684866547584534
    z: 0.0
  - x: -2.0162086486816406
    y: 0.5843232274055481
    z: 0.0
  - x: -1.9996291399002075
    y: 0.4801061451435089
    z: 0.0
  - x: -1.9520536661148071
    y: 0.40865665674209595
    z: 0.0
  - x: -1.8807570934295654
    y: 0.36085233092308044
    z: 0.0
  - x: -1.7965936660766602
    y: 0.3439708948135376
    z: 0.0
  - x: -1.6923766136169434
    y: 0.3605503737926483
    z: 0.0
  - x: -1.620927095413208
    y: 0.4081259071826935
    z: 0.0
  - x: -1.5731227397918701
    y: 0.47942250967025757
    z: 0.0
  - x: -1.5562412738800049
    y: 0.5635859370231628
    z: 0.0
  - x: -1.572820782661438
    y: 0.6678029894828796
    z: 0.0
  - x: -1.620396375656128
    y: 0.7392524480819702
    z: 0.0
  - x: -1.6916929483413696
    y: 0.7870568037033081
    z: 0.0
---
header:
  stamp:
    sec: 103
    nanosec: 989000000
  frame_id: map
polygon:
  points:
  - x: -1.7835153341293335
    y: 0.8330185413360596
    z: 0.0
  - x: -1.8778847455978394
    y: 0.8173128366470337
    z: 0.0
  - x: -1.949779987335205
    y: 0.7704136371612549
    z: 0.0
  - x: -1.9982550144195557
    y: 0.6995713114738464
    z: 0.0
  - x: -2.015929937362671
    y: 0.6155709624290466
    z: 0.0
  - x: -2.0003345012664795
    y: 0.5112020373344421
    z: 0.0
  - x: -1.9534353017807007
    y: 0.4393068253993988
    z: 0.0
  - x: -1.882593035697937
    y: 0.3908318281173706
    z: 0.0
  - x: -1.7985926866531372
    y: 0.37315696477890015
    z: 0.0
  - x: -1.6942237615585327
    y: 0.388752281665802
    z: 0.0
  - x: -1.622328519821167
    y: 0.4356515109539032
    z: 0.0
  - x: -1.5738534927368164
    y: 0.5064938068389893
    z: 0.0
  - x: -1.5561786890029907
    y: 0.5904942154884338
    z: 0.0
  - x: -1.5717740058898926
    y: 0.6948630809783936
    z: 0.0
  - x: -1.6186732053756714
    y: 0.7667583227157593
    z: 0.0
  - x: -1.6895155906677246
    y: 0.8152332901954651
    z: 0.0
---
header:
  stamp:
    sec: 103
    nanosec: 989000000
  frame_id: map
polygon:
  points:
  - x: -1.7835153341293335
    y: 0.8330185413360596
    z: 0.0
  - x: -1.8778847455978394
    y: 0.8173128366470337
    z: 0.0
  - x: -1.949779987335205
    y: 0.7704136371612549
    z: 0.0
  - x: -1.9982550144195557
    y: 0.6995713114738464
    z: 0.0
  - x: -2.015929937362671
    y: 0.6155709624290466
    z: 0.0
  - x: -2.0003345012664795
    y: 0.5112020373344421
    z: 0.0
  - x: -1.9534353017807007
    y: 0.4393068253993988
    z: 0.0
  - x: -1.882593035697937
    y: 0.3908318281173706
    z: 0.0
  - x: -1.7985926866531372
    y: 0.37315696477890015
    z: 0.0
  - x: -1.6942237615585327
    y: 0.388752281665802
    z: 0.0
  - x: -1.622328519821167
    y: 0.4356515109539032
    z: 0.0
  - x: -1.5738534927368164
    y: 0.5064938068389893
    z: 0.0
  - x: -1.5561786890029907
    y: 0.5904942154884338
    z: 0.0
  - x: -1.5717740058898926
    y: 0.6948630809783936
    z: 0.0
  - x: -1.6186732053756714
    y: 0.7667583227157593
    z: 0.0
  - x: -1.6895155906677246
    y: 0.8152332901954651
    z: 0.0
---
header:
  stamp:
    sec: 104
    nanosec: 211000000
  frame_id: map
polygon:
  points:
  - x: -1.7804436683654785
    y: 0.858881413936615
    z: 0.0
  - x: -1.8749871253967285
    y: 0.8442599773406982
    z: 0.0
  - x: -1.9474159479141235
    y: 0.798189103603363
    z: 0.0
  - x: -1.9967008829116821
    y: 0.7279078364372253
    z: 0.0
  - x: -2.015338897705078
    y: 0.6441158652305603
    z: 0.0
  - x: -2.0009424686431885
    y: 0.5395748615264893
    z: 0.0
  - x: -1.954871654510498
    y: 0.46714603900909424
    z: 0.0
  - x: -1.8845903873443604
    y: 0.41786110401153564
    z: 0.0
  - x: -1.8007984161376953
    y: 0.3992232084274292
    z: 0.0
  - x: -1.696257472038269
    y: 0.4136195182800293
    z: 0.0
  - x: -1.623828649520874
    y: 0.4596903920173645
    z: 0.0
  - x: -1.5745435953140259
    y: 0.5299716591835022
    z: 0.0
  - x: -1.555905818939209
    y: 0.6137636303901672
    z: 0.0
  - x: -1.570302128791809
    y: 0.7183046340942383
    z: 0.0
  - x: -1.6163729429244995
    y: 0.7907334566116333
    z: 0.0
  - x: -1.6866542100906372
    y: 0.8400183916091919
    z: 0.0
---
header:
  stamp:
    sec: 104
    nanosec: 432000000
  frame_id: map
polygon:
  points:
  - x: -1.7770988941192627
    y: 0.892294704914093
    z: 0.0
  - x: -1.8717923164367676
    y: 0.8786776065826416
    z: 0.0
  - x: -1.9447060823440552
    y: 0.8333781361579895
    z: 0.0
  - x: -1.9947341680526733
    y: 0.7636239528656006
    z: 0.0
  - x: -2.0142605304718018
    y: 0.6800345778465271
    z: 0.0
  - x: -2.000974655151367
    y: 0.5753466486930847
    z: 0.0
  - x: -1.9556751251220703
    y: 0.5024328827857971
    z: 0.0
  - x: -1.8859210014343262
    y: 0.4524047076702118
    z: 0.0
  - x: -1.802331566810608
    y: 0.4328784644603729
    z: 0.0
  - x: -1.6976436376571655
    y: 0.4461643099784851
    z: 0.0
  - x: -1.624729871749878
    y: 0.4914638102054596
    z: 0.0
  - x: -1.5747016668319702
    y: 0.5612179636955261
    z: 0.0
  - x: -1.5551754236221313
    y: 0.6448073387145996
    z: 0.0
  - x: -1.568461298942566
    y: 0.749495267868042
    z: 0.0
  - x: -1.6137608289718628
    y: 0.8224090337753296
    z: 0.0
  - x: -1.683514952659607
    y: 0.8724372386932373
    z: 0.0
---
header:
  stamp:
    sec: 104
    nanosec: 532000000
  frame_id: map
polygon:
  points:
  - x: -1.7744215726852417
    y: 0.9177243709564209
    z: 0.0
  - x: -1.8692142963409424
    y: 0.9048165678977966
    z: 0.0
  - x: -1.9424651861190796
    y: 0.8600642681121826
    z: 0.0
  - x: -1.9930142164230347
    y: 0.7906866073608398
    z: 0.0
  - x: -2.0131657123565674
    y: 0.7072457075119019
    z: 0.0
  - x: -2.000663995742798
    y: 0.6024612784385681
    z: 0.0
  - x: -1.955911636352539
    y: 0.5292103886604309
    z: 0.0
  - x: -1.8865339756011963
    y: 0.4786613881587982
    z: 0.0
  - x: -1.8030930757522583
    y: 0.4585098922252655
    z: 0.0
  - x: -1.6983087062835693
    y: 0.47101160883903503
    z: 0.0
  - x: -1.6250578165054321
    y: 0.5157639384269714
    z: 0.0
  - x: -1.574508786201477
    y: 0.5851415991783142
    z: 0.0
  - x: -1.5543572902679443
    y: 0.6685824394226074
    z: 0.0
  - x: -1.5668590068817139
    y: 0.7733669281005859
    z: 0.0
  - x: -1.6116113662719727
    y: 0.8466178178787231
    z: 0.0
  - x: -1.6809890270233154
    y: 0.8971667885780334
    z: 0.0
---
header:
  stamp:
    sec: 105
    nanosec: 14000000
  frame_id: map
polygon:
  points:
  - x: -1.766779899597168
    y: 0.988334059715271
    z: 0.0
  - x: -1.8617881536483765
    y: 0.9771220684051514
    z: 0.0
  - x: -1.9358268976211548
    y: 0.9336857199668884
    z: 0.0
  - x: -1.987607479095459
    y: 0.8652223348617554
    z: 0.0
  - x: -2.009246587753296
    y: 0.7821548581123352
    z: 0.0
  - x: -1.9986191987991333
    y: 0.6771637201309204
    z: 0.0
  - x: -1.9551829099655151
    y: 0.6031249165534973
    z: 0.0
  - x: -1.8867194652557373
    y: 0.5513443946838379
    z: 0.0
  - x: -1.803652048110962
    y: 0.5297051668167114
    z: 0.0
  - x: -1.6986608505249023
    y: 0.5403326153755188
    z: 0.0
  - x: -1.624622106552124
    y: 0.5837689638137817
    z: 0.0
  - x: -1.5728415250778198
    y: 0.6522323489189148
    z: 0.0
  - x: -1.5512022972106934
    y: 0.735299825668335
    z: 0.0
  - x: -1.5618298053741455
    y: 0.8402909636497498
    z: 0.0
  - x: -1.6052660942077637
    y: 0.9143297672271729
    z: 0.0
  - x: -1.6737295389175415
    y: 0.9661102890968323
    z: 0.0
---
header:
  stamp:
    sec: 105
    nanosec: 14000000
  frame_id: map
polygon:
  points:
  - x: -1.766779899597168
    y: 0.988334059715271
    z: 0.0
  - x: -1.8617881536483765
    y: 0.9771220684051514
    z: 0.0
  - x: -1.9358268976211548
    y: 0.9336857199668884
    z: 0.0
  - x: -1.987607479095459
    y: 0.8652223348617554
    z: 0.0
  - x: -2.009246587753296
    y: 0.7821548581123352
    z: 0.0
  - x: -1.9986191987991333
    y: 0.6771637201309204
    z: 0.0
  - x: -1.9551829099655151
    y: 0.6031249165534973
    z: 0.0
  - x: -1.8867194652557373
    y: 0.5513443946838379
    z: 0.0
  - x: -1.803652048110962
    y: 0.5297051668167114
    z: 0.0
  - x: -1.6986608505249023
    y: 0.5403326153755188
    z: 0.0
  - x: -1.624622106552124
    y: 0.5837689638137817
    z: 0.0
  - x: -1.5728415250778198
    y: 0.6522323489189148
    z: 0.0
  - x: -1.5512022972106934
    y: 0.735299825668335
    z: 0.0
  - x: -1.5618298053741455
    y: 0.8402909636497498
    z: 0.0
  - x: -1.6052660942077637
    y: 0.9143297672271729
    z: 0.0
  - x: -1.6737295389175415
    y: 0.9661102890968323
    z: 0.0
---
