header:
  stamp:
    sec: 99
    nanosec: 42000000
  frame_id: ''
name:
- wheel_left_joint
- wheel_right_joint
position:
- -0.11367260899380849
- 2.1145877553353998
velocity:
- 0.2577357487099941
- 8.03421116975959
effort: []
---
header:
  stamp:
    sec: 99
    nanosec: 76000000
  frame_id: ''
name:
- wheel_left_joint
- wheel_right_joint
position:
- -0.13471791174237158
- 2.3807107269624677
velocity:
- -0.6195486485585678
- 7.830900243253875
effort: []
---
header:
  stamp:
    sec: 99
    nanosec: 110000000
  frame_id: ''
name:
- wheel_left_joint
- wheel_right_joint
position:
- -0.12078431300709536
- 2.6819813315889327
velocity:
- 0.41025698831811
- 8.861283577379913
effort: []
---
header:
  stamp:
    sec: 99
    nanosec: 144000000
  frame_id: ''
name:
- wheel_left_joint
- wheel_right_joint
position:
- -0.09944196418554707
- 2.9989583462868534
velocity:
- 0.6273486721491075
- 9.324043125080276
effort: []
---
header:
  stamp:
    sec: 99
    nanosec: 178000000
  frame_id: ''
name:
- wheel_left_joint
- wheel_right_joint
position:
- -0.07806691636682395
- 3.315856265733281
velocity:
- 0.6288542506003086
- 9.320428349284667
effort: []
---
header:
  stamp:
    sec: 99
    nanosec: 212000000
  frame_id: ''
name:
- wheel_left_joint
- wheel_right_joint
position:
- -0.021714990448360894
- 3.667906995151486
velocity:
- 1.6580531225527972
- 10.35522151291583
effort: []
---
header:
  stamp:
    sec: 99
    nanosec: 246000000
  frame_id: ''
name:
- wheel_left_joint
- wheel_right_joint
position:
- 0.06967276980069759
- 4.054988677390723
velocity:
- 2.68818382274939
- 11.385166723765051
effort: []
---
header:
  stamp:
    sec: 99
    nanosec: 280000000
  frame_id: ''
name:
- wheel_left_joint
- wheel_right_joint
position:
- 0.17558845220245445
- 4.456606533881258
velocity:
- 3.115617980113548
- 11.81266541769062
effort: []
---
header:
  stamp:
    sec: 99
    nanosec: 314000000
  frame_id: ''
name:
- wheel_left_joint
- wheel_right_joint
position:
- 0.28155595122349375
- 4.858100136826308
velocity:
- 3.1172166766175993
- 11.808946776317674
effort: []
---
header:
  stamp:
    sec: 99
    nanosec: 348000000
  frame_id: ''
name:
- wheel_left_joint
- wheel_right_joint
position:
- 0.35244014687869285
- 5.22469565757673
velocity:
- 2.085441870650958
- 10.782505551317167
effort: []
---
header:
  stamp:
    sec: 99
    nanosec: 382000000
  frame_id: ''
name:
- wheel_left_joint
- wheel_right_joint
position:
- 0.41611101217759394
- 5.583896577716842
velocity:
- 1.8735093278491788
- 10.565293323817208
effort: []
---
header:
  stamp:
    sec: 99
    nanosec: 416000000
  frame_id: ''
name:
- wheel_left_joint
- wheel_right_joint
position:
- 0.47978329212889204
- 5.943094561698632
velocity:
- 1.8735013823936735
- 10.56529442353917
effort: []
---
header:
  stamp:
    sec: 99
    nanosec: 450000000
  frame_id: ''
name:
- wheel_left_joint
- wheel_right_joint
position:
- 0.5857028580126169
- 6.3447108881150545
velocity:
- 3.1156912848596856
- 11.812640920973568
effort: []
---
header:
  stamp:
    sec: 99
    nanosec: 484000000
  frame_id: ''
name:
- wheel_left_joint
- wheel_right_joint
position:
- 0.7057184461366202
- 6.760423771513663
velocity:
- 3.530329712874369
- 12.227261693763163
effort: []
---
header:
  stamp:
    sec: 99
    nanosec: 518000000
  frame_id: ''
name:
- wheel_left_joint
- wheel_right_joint
position:
- 0.8116335685600689
- 7.162043287896122
velocity:
- 3.115931037563667
- 11.813021906208172
effort: []
---
header:
  stamp:
    sec: 99
    nanosec: 552000000
  frame_id: ''
name:
- wheel_left_joint
- wheel_right_joint
position:
- 0.9176056673382673
- 7.5635333171152075
velocity:
- 3.117035910326988
- 11.808402222275136
effort: []
---
header:
  stamp:
    sec: 99
    nanosec: 586000000
  frame_id: ''
name:
- wheel_left_joint
- wheel_right_joint
position:
- 1.037577249113924
- 7.979382658779635
velocity:
- 3.5290162459239083
- 12.231242897776221
effort: []
---
header:
  stamp:
    sec: 99
    nanosec: 620000000
  frame_id: ''
name:
- wheel_left_joint
- wheel_right_joint
position:
- 1.157652235353555
- 8.39496399492276
velocity:
- 3.5321420516719386
- 12.22319953564149
effort: []
---
header:
  stamp:
    sec: 99
    nanosec: 654000000
  frame_id: ''
name:
- wheel_left_joint
- wheel_right_joint
position:
- 1.2930503238671465
- 8.79557067857021
velocity:
- 3.9849310598557914
- 11.778750253782238
effort: []
---
header:
  stamp:
    sec: 99
    nanosec: 688000000
  frame_id: ''
name:
- wheel_left_joint
- wheel_right_joint
position:
- 1.428686517424909
- 9.195600327928183
velocity:
- 3.9901379191045976
- 11.7661467887382
effort: []
---
header:
  stamp:
    sec: 99
    nanosec: 722000000
  frame_id: ''
name:
- wheel_left_joint
- wheel_right_joint
position:
- 1.5643276738974414
- 9.59561876329613
velocity:
- 3.989965542337421
- 11.76546563950037
effort: []
---
header:
  stamp:
    sec: 99
    nanosec: 756000000
  frame_id: ''
name:
- wheel_left_joint
- wheel_right_joint
position:
- 1.685642406208558
- 9.98207770468469
velocity:
- 3.5687579865817365
- 11.367084600621892
effort: []
---
header:
  stamp:
    sec: 99
    nanosec: 790000000
  frame_id: ''
name:
- wheel_left_joint
- wheel_right_joint
position:
- 1.8071885449497316
- 10.36799073050381
velocity:
- 3.5756290203853776
- 11.350795451449791
effort: []
---
header:
  stamp:
    sec: 99
    nanosec: 824000000
  frame_id: ''
name:
- wheel_left_joint
- wheel_right_joint
position:
- 1.9439191174519515
- 10.739195699737033
velocity:
- 4.02390332521033
- 10.91349957173219
effort: []
---
header:
  stamp:
    sec: 99
    nanosec: 858000000
  frame_id: ''
name:
- wheel_left_joint
- wheel_right_joint
position:
- 2.0950651015779727
- 11.123773670827887
velocity:
- 4.446105328672008
- 11.311647018118002
effort: []
---
header:
  stamp:
    sec: 99
    nanosec: 892000000
  frame_id: ''
name:
- wheel_left_joint
- wheel_right_joint
position:
- 2.246279467073702
- 11.50821311704809
velocity:
- 4.448175905129697
- 11.307517201667661
effort: []
---
header:
  stamp:
    sec: 99
    nanosec: 926000000
  frame_id: ''
name:
- wheel_left_joint
- wheel_right_joint
position:
- 2.397497818180865
- 11.892643395431383
velocity:
- 4.448119612660026
- 11.306946325580306
effort: []
---
header:
  stamp:
    sec: 99
    nanosec: 960000000
  frame_id: ''
name:
- wheel_left_joint
- wheel_right_joint
position:
- 2.5487202929285893
- 12.277064110840104
velocity:
- 4.448224828468931
- 11.306674387729306
effort: []
---
header:
  stamp:
    sec: 99
    nanosec: 994000000
  frame_id: ''
name:
- wheel_left_joint
- wheel_right_joint
position:
- 2.7307715700453468
- 12.631030933126052
velocity:
- 5.3589470453303845
- 10.402139996634785
effort: []
---
header:
  stamp:
    sec: 100
    nanosec: 28000000
  frame_id: ''
name:
- wheel_left_joint
- wheel_right_joint
position:
- 2.9131141615843923
- 12.98434765458048
velocity:
- 5.363579538105352
- 10.39168846263699
effort: []
---
header:
  stamp:
    sec: 100
    nanosec: 62000000
  frame_id: ''
name:
- wheel_left_joint
- wheel_right_joint
position:
- 3.0954626117287383
- 13.337651460073277
velocity:
- 5.363701102067283
- 10.391449706176337
effort: []
---
header:
  stamp:
    sec: 100
    nanosec: 96000000
  frame_id: ''
name:
- wheel_left_joint
- wheel_right_joint
position:
- 3.2778143529131967
- 13.69094855958598
velocity:
- 5.363459836064084
- 10.390890370476729
effort: []
---
header:
  stamp:
    sec: 100
    nanosec: 130000000
  frame_id: ''
name:
- wheel_left_joint
- wheel_right_joint
position:
- 3.4601691499367657
- 14.044238235370997
velocity:
- 5.364169669683541
- 10.391445737753356
effort: []
---
header:
  stamp:
    sec: 100
    nanosec: 164000000
  frame_id: ''
name:
- wheel_left_joint
- wheel_right_joint
position:
- 3.612697236081175
- 14.399263193980767
velocity:
- 4.484675764586693
- 10.446673063913678
effort: []
---
header:
  stamp:
    sec: 100
    nanosec: 198000000
  frame_id: ''
name:
- wheel_left_joint
- wheel_right_joint
position:
- 3.800059002725722
- 14.737488111604943
velocity:
- 5.514605343020232
- 9.940920063926058
effort: []
---
header:
  stamp:
    sec: 100
    nanosec: 232000000
  frame_id: ''
name:
- wheel_left_joint
- wheel_right_joint
position:
- 3.9978651303787904
- 15.075407429601322
velocity:
- 5.819261467146466
- 9.937784478966986
effort: []
---
header:
  stamp:
    sec: 100
    nanosec: 266000000
  frame_id: ''
name:
- wheel_left_joint
- wheel_right_joint
position:
- 4.195791427210343
- 15.41311844617007
velocity:
- 5.821896939580351
- 9.932781513031655
effort: []
---
header:
  stamp:
    sec: 100
    nanosec: 300000000
  frame_id: ''
name:
- wheel_left_joint
- wheel_right_joint
position:
- 4.393721836964462
- 15.750819813923078
velocity:
- 5.8216474003359515
- 9.932178490439721
effort: []
---
header:
  stamp:
    sec: 100
    nanosec: 334000000
  frame_id: ''
name:
- wheel_left_joint
- wheel_right_joint
position:
- 4.5759870549778014
- 16.104246722140793
velocity:
- 5.358984704080343
- 10.399293892288258
effort: []
---
header:
  stamp:
    sec: 100
    nanosec: 368000000
  frame_id: ''
name:
- wheel_left_joint
- wheel_right_joint
position:
- 4.7583662483685725
- 16.45747789697556
velocity:
- 5.364279370178036
- 10.388900110512218
effort: []
---
header:
  stamp:
    sec: 100
    nanosec: 402000000
  frame_id: ''
name:
- wheel_left_joint
- wheel_right_joint
position:
- 4.97143999957029
- 16.780551880219043
velocity:
- 6.271124613725889
- 9.493517683763393
effort: []
---
header:
  stamp:
    sec: 100
    nanosec: 436000000
  frame_id: ''
name:
- wheel_left_joint
- wheel_right_joint
position:
- 5.184938964913793
- 17.102681424937288
velocity:
- 6.280222238071163
- 9.47476856071354
effort: []
---
header:
  stamp:
    sec: 100
    nanosec: 470000000
  frame_id: ''
name:
- wheel_left_joint
- wheel_right_joint
position:
- 5.398444977509285
- 17.424793671804885
velocity:
- 6.280291234211955
- 9.474434451655998
effort: []
---
header:
  stamp:
    sec: 100
    nanosec: 504000000
  frame_id: ''
name:
- wheel_left_joint
- wheel_right_joint
position:
- 5.596062331906981
- 17.763099726319876
velocity:
- 5.810825140220589
- 9.955020579984769
effort: []
---
header:
  stamp:
    sec: 100
    nanosec: 538000000
  frame_id: ''
name:
- wheel_left_joint
- wheel_right_joint
position:
- 5.79401578030928
- 18.1007464056492
velocity:
- 5.822970982103421
- 9.931233576922832
effort: []
---
header:
  stamp:
    sec: 100
    nanosec: 572000000
  frame_id: ''
name:
- wheel_left_joint
- wheel_right_joint
position:
- 5.991974848140621
- 18.43837895241221
velocity:
- 5.822981815037822
- 9.930873283394279
effort: []
---
header:
  stamp:
    sec: 100
    nanosec: 606000000
  frame_id: ''
name:
- wheel_left_joint
- wheel_right_joint
position:
- 6.189937751254761
- 18.775998996553348
velocity:
- 5.823105542826123
- 9.930620211870195
effort: []
---
header:
  stamp:
    sec: 100
    nanosec: 640000000
  frame_id: ''
name:
- wheel_left_joint
- wheel_right_joint
position:
- 6.402849261025046
- 19.09933235266599
velocity:
- 6.2644571514269005
- 9.506051692688299
effort: []
---
header:
  stamp:
    sec: 100
    nanosec: 674000000
  frame_id: ''
name:
- wheel_left_joint
- wheel_right_joint
position:
- 6.61637357217779
- 19.421400977917756
velocity:
- 6.280898364804956
- 9.472884868865169
effort: []
---
header:
  stamp:
    sec: 100
    nanosec: 708000000
  frame_id: ''
name:
- wheel_left_joint
- wheel_right_joint
position:
- 6.829906226229927
- 19.743450401856055
velocity:
- 6.281044242927665
- 9.47260049889502
effort: []
---
header:
  stamp:
    sec: 100
    nanosec: 742000000
  frame_id: ''
name:
- wheel_left_joint
- wheel_right_joint
position:
- 7.073728650995108
- 20.036104826130767
velocity:
- 7.175309365625179
- 8.59907909790448
effort: []
---
header:
  stamp:
    sec: 100
    nanosec: 776000000
  frame_id: ''
name:
- wheel_left_joint
- wheel_right_joint
position:
- 7.318377574046521
- 20.327060106313223
velocity:
- 7.195888338088008
- 8.556893564981804
effort: []
---
header:
  stamp:
    sec: 100
    nanosec: 810000000
  frame_id: ''
name:
- wheel_left_joint
- wheel_right_joint
position:
- 7.546732616322757
- 20.635030642731785
velocity:
- 6.714484036680768
- 9.062522216208405
effort: []
---
header:
  stamp:
    sec: 100
    nanosec: 844000000
  frame_id: ''
name:
- wheel_left_joint
- wheel_right_joint
position:
- 7.775831614638114
- 20.94151460387224
velocity:
- 6.738796913751582
- 9.014053643509106
effort: []
---
header:
  stamp:
    sec: 100
    nanosec: 878000000
  frame_id: ''
name:
- wheel_left_joint
- wheel_right_joint
position:
- 8.004938718184453
- 21.247979852218037
velocity:
- 6.739084075137571
- 9.014201888616897
effort: []
---
header:
  stamp:
    sec: 100
    nanosec: 912000000
  frame_id: ''
name:
- wheel_left_joint
- wheel_right_joint
position:
- 8.2189785893265
- 21.54229896655466
velocity:
- 6.295826298065523
- 8.657345545345013
effort: []
---
header:
  stamp:
    sec: 100
    nanosec: 946000000
  frame_id: ''
name:
- wheel_left_joint
- wheel_right_joint
position:
- 8.43398738773244
- 21.834665133030907
velocity:
- 6.324596716877791
- 8.599112569536407
effort: []
---
header:
  stamp:
    sec: 100
    nanosec: 980000000
  frame_id: ''
name:
- wheel_left_joint
- wheel_right_joint
position:
- 8.649006160440283
- 22.127007362226806
velocity:
- 6.324539633072229
- 8.598402968524686
effort: []
---
header:
  stamp:
    sec: 101
    nanosec: 14000000
  frame_id: ''
name:
- wheel_left_joint
- wheel_right_joint
position:
- 8.89248357320663
- 22.42035496188007
velocity:
- 7.163300393054266
- 8.624534496069915
effort: []
---
header:
  stamp:
    sec: 101
    nanosec: 48000000
  frame_id: ''
name:
- wheel_left_joint
- wheel_right_joint
position:
- 9.1215114716038
- 22.726936667018464
velocity:
- 6.73509820205342
- 9.021552805277175
effort: []
---
header:
  stamp:
    sec: 101
    nanosec: 82000000
  frame_id: ''
name:
- wheel_left_joint
- wheel_right_joint
position:
- 9.350639746977967
- 23.03335292936014
velocity:
- 6.7395362743431235
- 9.012344248579549
effort: []
---
header:
  stamp:
    sec: 101
    nanosec: 116000000
  frame_id: ''
name:
- wheel_left_joint
- wheel_right_joint
position:
- 9.565343911281039
- 23.326331302915523
velocity:
- 6.315430099017239
- 8.617576533497154
effort: []
---
header:
  stamp:
    sec: 101
    nanosec: 150000000
  frame_id: ''
name:
- wheel_left_joint
- wheel_right_joint
position:
- 9.80978401237177
- 23.617711911203166
velocity:
- 7.191837104990993
- 8.566250692020692
effort: []
---
header:
  stamp:
    sec: 101
    nanosec: 184000000
  frame_id: ''
name:
- wheel_left_joint
- wheel_right_joint
position:
- 10.054479526522034
- 23.90855876165446
velocity:
- 7.197153542877863
- 8.553971944706541
effort: []
---
header:
  stamp:
    sec: 101
    nanosec: 218000000
  frame_id: ''
name:
- wheel_left_joint
- wheel_right_joint
position:
- 10.299180887837545
- 24.199393714723392
velocity:
- 7.1972673965629514
- 8.55371005074113
effort: []
---
header:
  stamp:
    sec: 101
    nanosec: 252000000
  frame_id: ''
name:
- wheel_left_joint
- wheel_right_joint
position:
- 10.543885968442082
- 24.490219892648547
velocity:
- 7.19737268898651
- 8.553455178771754
effort: []
---
header:
  stamp:
    sec: 101
    nanosec: 286000000
  frame_id: ''
name:
- wheel_left_joint
- wheel_right_joint
position:
- 10.774138370640845
- 24.76770315602036
velocity:
- 6.772214087963539
- 8.161146658646318
effort: []
---
header:
  stamp:
    sec: 101
    nanosec: 320000000
  frame_id: ''
name:
- wheel_left_joint
- wheel_right_joint
position:
- 11.034158416453998
- 25.043543318194942
velocity:
- 7.64966473167494
- 8.10842378371089
effort: []
---
header:
  stamp:
    sec: 101
    nanosec: 354000000
  frame_id: ''
name:
- wheel_left_joint
- wheel_right_joint
position:
- 11.29442958888879
- 25.31881148400538
velocity:
- 7.6555592251902524
- 8.09585416123257
effort: []
---
header:
  stamp:
    sec: 101
    nanosec: 388000000
  frame_id: ''
name:
- wheel_left_joint
- wheel_right_joint
position:
- 11.554706630254381
- 25.594057640480894
velocity:
- 7.65582754434619
- 8.096044227622157
effort: []
---
header:
  stamp:
    sec: 101
    nanosec: 422000000
  frame_id: ''
name:
- wheel_left_joint
- wheel_right_joint
position:
- 11.80051012138421
- 25.856002976749274
velocity:
- 7.229596794627922
- 7.704164732066547
effort: []
---
header:
  stamp:
    sec: 101
    nanosec: 456000000
  frame_id: ''
name:
- wheel_left_joint
- wheel_right_joint
position:
- 12.046692477597201
- 26.117143402384144
velocity:
- 7.2408839487706045
- 7.6801865564702965
effort: []
---
header:
  stamp:
    sec: 101
    nanosec: 490000000
  frame_id: ''
name:
- wheel_left_joint
- wheel_right_joint
position:
- 12.292880021966415
- 26.378269625370574
velocity:
- 7.240990696639198
- 7.679936568692507
effort: []
---
header:
  stamp:
    sec: 101
    nanosec: 524000000
  frame_id: ''
name:
- wheel_left_joint
- wheel_right_joint
position:
- 12.53906903564154
- 26.63938779204324
velocity:
- 7.241397767758615
- 7.680109847031326
effort: []
---
header:
  stamp:
    sec: 101
    nanosec: 558000000
  frame_id: ''
name:
- wheel_left_joint
- wheel_right_joint
position:
- 12.785267183594549
- 26.90049874124846
velocity:
- 7.241188794071739
- 7.6794965481181015
effort: []
---
header:
  stamp:
    sec: 101
    nanosec: 592000000
  frame_id: ''
name:
- wheel_left_joint
- wheel_right_joint
position:
- 13.0449850741014
- 27.176955970215634
velocity:
- 7.6388459001880555
- 8.131133994365738
effort: []
---
header:
  stamp:
    sec: 101
    nanosec: 626000000
  frame_id: ''
name:
- wheel_left_joint
- wheel_right_joint
position:
- 13.290978294397522
- 27.438528128934657
velocity:
- 7.235632570636104
- 7.693226377380151
effort: []
---
header:
  stamp:
    sec: 101
    nanosec: 660000000
  frame_id: ''
name:
- wheel_left_joint
- wheel_right_joint
position:
- 13.537182456400913
- 27.699618600237077
velocity:
- 7.242052207050126
- 7.6796570853240915
effort: []
---
header:
  stamp:
    sec: 101
    nanosec: 694000000
  frame_id: ''
name:
- wheel_left_joint
- wheel_right_joint
position:
- 13.783391227752636
- 27.960697062259452
velocity:
- 7.242028905798422
- 7.679346296358923
effort: []
---
header:
  stamp:
    sec: 101
    nanosec: 728000000
  frame_id: ''
name:
- wheel_left_joint
- wheel_right_joint
position:
- 14.029604293290198
- 28.221766414343133
velocity:
- 7.2420381629083845
- 7.6786528654621105
effort: []
---
header:
  stamp:
    sec: 101
    nanosec: 762000000
  frame_id: ''
name:
- wheel_left_joint
- wheel_right_joint
position:
- 14.304975397050523
- 28.482490811388093
velocity:
- 8.101036308753462
- 7.664047612927426
effort: []
---
header:
  stamp:
    sec: 101
    nanosec: 796000000
  frame_id: ''
name:
- wheel_left_joint
- wheel_right_joint
position:
- 14.580847336006254
- 28.742105594603625
velocity:
- 8.114195901214408
- 7.635222714933175
effort: []
---
header:
  stamp:
    sec: 101
    nanosec: 830000000
  frame_id: ''
name:
- wheel_left_joint
- wheel_right_joint
position:
- 14.826485313382072
- 29.004430986444383
velocity:
- 7.222874888132522
- 7.719803631327594
effort: []
---
header:
  stamp:
    sec: 101
    nanosec: 864000000
  frame_id: ''
name:
- wheel_left_joint
- wheel_right_joint
position:
- 15.072709508699052
- 29.265476445204722
velocity:
- 7.2424587161111615
- 7.677718228138136
effort: []
---
header:
  stamp:
    sec: 101
    nanosec: 898000000
  frame_id: ''
name:
- wheel_left_joint
- wheel_right_joint
position:
- 15.318940828258361
- 29.52650424561988
velocity:
- 7.242663405080946
- 7.6778489279574025
effort: []
---
header:
  stamp:
    sec: 101
    nanosec: 932000000
  frame_id: ''
name:
- wheel_left_joint
- wheel_right_joint
position:
- 15.565175874596694
- 29.787522915977966
velocity:
- 7.242782501610063
- 7.677574402818869
effort: []
---
header:
  stamp:
    sec: 101
    nanosec: 966000000
  frame_id: ''
name:
- wheel_left_joint
- wheel_right_joint
position:
- 15.824605960225403
- 30.064590573633552
velocity:
- 7.630590931934529
- 8.149696320157723
effort: []
---
header:
  stamp:
    sec: 102
    nanosec: 0
  frame_id: ''
name:
- wheel_left_joint
- wheel_right_joint
position:
- 16.08494305070697
- 30.339701901747336
velocity:
- 7.657318694709149
- 8.090869107743025
effort: []
---
header:
  stamp:
    sec: 102
    nanosec: 34000000
  frame_id: ''
name:
- wheel_left_joint
- wheel_right_joint
position:
- 16.33003264991261
- 30.603222080637444
velocity:
- 7.208490441579206
- 7.750789294619479
effort: []
---
header:
  stamp:
    sec: 102
    nanosec: 68000000
  frame_id: ''
name:
- wheel_left_joint
- wheel_right_joint
position:
- 16.57627758949912
- 30.864219826238447
velocity:
- 7.243207298428976
- 7.676039705668289
effort: []
---
header:
  stamp:
    sec: 102
    nanosec: 102000000
  frame_id: ''
name:
- wheel_left_joint
- wheel_right_joint
position:
- 16.842953581975813
- 31.134685978156398
velocity:
- 7.845526028189009
- 7.955335372768404
effort: []
---
header:
  stamp:
    sec: 102
    nanosec: 136000000
  frame_id: ''
name:
- wheel_left_joint
- wheel_right_joint
position:
- 17.111086141052102
- 31.401918837748273
velocity:
- 7.8867255651724575
- 7.860827803804874
effort: []
---
header:
  stamp:
    sec: 102
    nanosec: 170000000
  frame_id: ''
name:
- wheel_left_joint
- wheel_right_joint
position:
- 17.379232994269223
- 31.669257655105522
velocity:
- 7.888374717857157
- 7.857952115228041
effort: []
---
header:
  stamp:
    sec: 102
    nanosec: 204000000
  frame_id: ''
name:
- wheel_left_joint
- wheel_right_joint
position:
- 17.64740079760782
- 31.93647228057448
velocity:
- 7.8879440260772276
- 7.863050953136465
effort: []
---
header:
  stamp:
    sec: 102
    nanosec: 238000000
  frame_id: ''
name:
- wheel_left_joint
- wheel_right_joint
position:
- 17.91556581429498
- 32.2036949489537
velocity:
- 7.919719780207296
- 7.87806817300216
effort: []
---
header:
  stamp:
    sec: 102
    nanosec: 272000000
  frame_id: ''
name:
- wheel_left_joint
- wheel_right_joint
position:
- 18.17457208118359
- 32.45221741238893
velocity:
- 7.619298021326617
- 7.307440907751117
effort: []
---
header:
  stamp:
    sec: 102
    nanosec: 306000000
  frame_id: ''
name:
- wheel_left_joint
- wheel_right_joint
position:
- 18.436445485375287
- 32.6974999906784
velocity:
- 7.74785293873009
- 7.232055962752318
effort: []
---
header:
  stamp:
    sec: 102
    nanosec: 340000000
  frame_id: ''
name:
- wheel_left_joint
- wheel_right_joint
position:
- 18.707798885375333
- 32.95995244536407
velocity:
- 7.983651121288103
- 7.724332593152045
effort: []
---
header:
  stamp:
    sec: 102
    nanosec: 374000000
  frame_id: ''
name:
- wheel_left_joint
- wheel_right_joint
position:
- 18.983809565844318
- 33.219229768992584
velocity:
- 8.157410145843535
- 7.651606324213576
effort: []
---
header:
  stamp:
    sec: 102
    nanosec: 408000000
  frame_id: ''
name:
- wheel_left_joint
- wheel_right_joint
position:
- 19.25984951303415
- 33.478438690946874
velocity:
- 8.142853764193452
- 7.654571263700481
effort: []
---
header:
  stamp:
    sec: 102
    nanosec: 442000000
  frame_id: ''
name:
- wheel_left_joint
- wheel_right_joint
position:
- 19.51593349111822
- 33.72657915927329
velocity:
- 7.539087616867596
- 7.3058919711461305
effort: []
---
header:
  stamp:
    sec: 102
    nanosec: 476000000
  frame_id: ''
name:
- wheel_left_joint
- wheel_right_joint
position:
- 19.777865501779203
- 33.97171277219606
velocity:
- 7.71379792560162
- 7.214487677638309
effort: []
---
header:
  stamp:
    sec: 102
    nanosec: 510000000
  frame_id: ''
name:
- wheel_left_joint
- wheel_right_joint
position:
- 20.04735470559355
- 34.2346026196902
velocity:
- 7.94431385818831
- 7.757919569027043
effort: []
---
header:
  stamp:
    sec: 102
    nanosec: 544000000
  frame_id: ''
name:
- wheel_left_joint
- wheel_right_joint
position:
- 20.323401036188415
- 34.493802664140105
velocity:
- 8.126419641510031
- 7.629906261938858
effort: []
---
header:
  stamp:
    sec: 102
    nanosec: 578000000
  frame_id: ''
name:
- wheel_left_joint
- wheel_right_joint
position:
- 20.599480823377203
- 34.7529234930788
velocity:
- 8.158597097123495
- 7.631772709761078
effort: []
---
header:
  stamp:
    sec: 102
    nanosec: 612000000
  frame_id: ''
name:
- wheel_left_joint
- wheel_right_joint
position:
- 20.853170470089736
- 35.00227196756552
velocity:
- 7.474613555973178
- 7.341177500553267
effort: []
---
header:
  stamp:
    sec: 102
    nanosec: 646000000
  frame_id: ''
name:
- wheel_left_joint
- wheel_right_joint
position:
- 21.11513024474049
- 35.24733802720697
velocity:
- 7.74683448775893
- 7.250859774296932
effort: []
---
header:
  stamp:
    sec: 102
    nanosec: 680000000
  frame_id: ''
name:
- wheel_left_joint
- wheel_right_joint
position:
- 21.37713183561922
- 35.49230735779462
velocity:
- 7.830737289352069
- 7.238608586430404
effort: []
---
header:
  stamp:
    sec: 102
    nanosec: 714000000
  frame_id: ''
name:
- wheel_left_joint
- wheel_right_joint
position:
- 21.640270960947902
- 35.75553867851044
velocity:
- 7.754656554827344
- 7.745296153170593
effort: []
---
header:
  stamp:
    sec: 102
    nanosec: 748000000
  frame_id: ''
name:
- wheel_left_joint
- wheel_right_joint
position:
- 21.91533468427501
- 36.015710916466574
velocity:
- 8.133111819097671
- 7.660672857287708
effort: []
---
header:
  stamp:
    sec: 102
    nanosec: 782000000
  frame_id: ''
name:
- wheel_left_joint
- wheel_right_joint
position:
- 22.175481469338916
- 36.261323078595616
velocity:
- 7.694189971866757
- 7.278615015347896
effort: []
---
header:
  stamp:
    sec: 102
    nanosec: 816000000
  frame_id: ''
name:
- wheel_left_joint
- wheel_right_joint
position:
- 22.437511878411183
- 36.5062212511543
velocity:
- 7.703867521088027
- 7.2240491107129925
effort: []
---
header:
  stamp:
    sec: 102
    nanosec: 850000000
  frame_id: ''
name:
- wheel_left_joint
- wheel_right_joint
position:
- 22.69955663029808
- 36.75108129820255
velocity:
- 7.760074160901448
- 7.236278738978429
effort: []
---
header:
  stamp:
    sec: 102
    nanosec: 884000000
  frame_id: ''
name:
- wheel_left_joint
- wheel_right_joint
position:
- 22.96160591623967
- 36.99591427250025
velocity:
- 8.001420572691734
- 7.2504061582940365
effort: []
---
header:
  stamp:
    sec: 102
    nanosec: 918000000
  frame_id: ''
name:
- wheel_left_joint
- wheel_right_joint
position:
- 23.225425037986582
- 37.25493403755473
velocity:
- 7.958306172840595
- 7.656234150087458
effort: []
---
header:
  stamp:
    sec: 102
    nanosec: 952000000
  frame_id: ''
name:
- wheel_left_joint
- wheel_right_joint
position:
- 23.50156142969181
- 37.5138792375387
velocity:
- 8.141028485382938
- 7.65577730257976
effort: []
---
header:
  stamp:
    sec: 102
    nanosec: 986000000
  frame_id: ''
name:
- wheel_left_joint
- wheel_right_joint
position:
- 23.7777316582579
- 37.77278681068
velocity:
- 8.141265347562316
- 7.637035216682794
effort: []
---
header:
  stamp:
    sec: 103
    nanosec: 20000000
  frame_id: ''
name:
- wheel_left_joint
- wheel_right_joint
position:
- 24.026349521389662
- 38.018038582219255
velocity:
- 7.336683436545045
- 7.237558537198113
effort: []
---
header:
  stamp:
    sec: 103
    nanosec: 54000000
  frame_id: ''
name:
- wheel_left_joint
- wheel_right_joint
position:
- 24.287023046762783
- 38.26336079157026
velocity:
- 8.259678468049097
- 7.286073275632688
effort: []
---
header:
  stamp:
    sec: 103
    nanosec: 88000000
  frame_id: ''
name:
- wheel_left_joint
- wheel_right_joint
position:
- 24.528519546298455
- 38.50673941388566
velocity:
- 7.367340594140296
- 7.212318239535191
effort: []
---
header:
  stamp:
    sec: 103
    nanosec: 122000000
  frame_id: ''
name:
- wheel_left_joint
- wheel_right_joint
position:
- 24.76690823389887
- 38.73698052498752
velocity:
- 7.053855932229948
- 6.806682671364343
effort: []
---
header:
  stamp:
    sec: 103
    nanosec: 156000000
  frame_id: ''
name:
- wheel_left_joint
- wheel_right_joint
position:
- 25.014904683877404
- 38.96758267694401
velocity:
- 7.285768156599355
- 6.8479067664941935
effort: []
---
header:
  stamp:
    sec: 103
    nanosec: 190000000
  frame_id: ''
name:
- wheel_left_joint
- wheel_right_joint
position:
- 25.26294445878206
- 39.19810228414484
velocity:
- 7.287212393904545
- 6.827996945611378
effort: []
---
header:
  stamp:
    sec: 103
    nanosec: 224000000
  frame_id: ''
name:
- wheel_left_joint
- wheel_right_joint
position:
- 25.48723256049988
- 39.414182573000694
velocity:
- 6.620543437743061
- 6.391660694937417
effort: []
---
header:
  stamp:
    sec: 103
    nanosec: 258000000
  frame_id: ''
name:
- wheel_left_joint
- wheel_right_joint
position:
- 25.721210649998874
- 39.6312856604999
velocity:
- 6.90642961102085
- 6.405089033681362
effort: []
---
header:
  stamp:
    sec: 103
    nanosec: 292000000
  frame_id: ''
name:
- wheel_left_joint
- wheel_right_joint
position:
- 25.929615567407428
- 39.83321135742788
velocity:
- 6.402633659274729
- 5.9752204028038785
effort: []
---
header:
  stamp:
    sec: 103
    nanosec: 326000000
  frame_id: ''
name:
- wheel_left_joint
- wheel_right_joint
position:
- 26.14932723079961
- 40.035861211504255
velocity:
- 6.558776465042771
- 5.9789970926500455
effort: []
---
header:
  stamp:
    sec: 103
    nanosec: 360000000
  frame_id: ''
name:
- wheel_left_joint
- wheel_right_joint
position:
- 26.369070556568257
- 40.23844333071052
velocity:
- 6.7058763745021945
- 5.984124923493437
effort: []
---
header:
  stamp:
    sec: 103
    nanosec: 394000000
  frame_id: ''
name:
- wheel_left_joint
- wheel_right_joint
position:
- 26.58882320923309
- 40.44100979688707
velocity:
- 6.523087628522992
- 5.973094370137153
effort: []
---
header:
  stamp:
    sec: 103
    nanosec: 428000000
  frame_id: ''
name:
- wheel_left_joint
- wheel_right_joint
position:
- 26.780644013089088
- 40.62937589165007
velocity:
- 5.934817537552118
- 5.586180022470758
effort: []
---
header:
  stamp:
    sec: 103
    nanosec: 462000000
  frame_id: ''
name:
- wheel_left_joint
- wheel_right_joint
position:
- 26.986264195280008
- 40.81789431022597
velocity:
- 6.639104859352894
- 5.6121022251335315
effort: []
---
header:
  stamp:
    sec: 103
    nanosec: 496000000
  frame_id: ''
name:
- wheel_left_joint
- wheel_right_joint
position:
- 27.157599388479454
- 41.00485072617643
velocity:
- 5.052408220990668
- 5.531478348744072
effort: []
---
header:
  stamp:
    sec: 103
    nanosec: 530000000
  frame_id: ''
name:
- wheel_left_joint
- wheel_right_joint
position:
- 27.362155583112575
- 41.193719269769076
velocity:
- 6.041950817851892
- 5.583518845810113
effort: []
---
header:
  stamp:
    sec: 103
    nanosec: 564000000
  frame_id: ''
name:
- wheel_left_joint
- wheel_right_joint
position:
- 27.552431401765677
- 41.3680681095138
velocity:
- 6.020980353331418
- 5.169226264387751
effort: []
---
header:
  stamp:
    sec: 103
    nanosec: 598000000
  frame_id: ''
name:
- wheel_left_joint
- wheel_right_joint
position:
- 27.729110645119036
- 41.54205357821577
velocity:
- 5.284233539140037
- 5.147985104446849
effort: []
---
header:
  stamp:
    sec: 103
    nanosec: 632000000
  frame_id: ''
name:
- wheel_left_joint
- wheel_right_joint
position:
- 27.917122485398508
- 41.716668260304566
velocity:
- 5.723297711258879
- 5.161013194063295
effort: []
---
header:
  stamp:
    sec: 103
    nanosec: 666000000
  frame_id: ''
name:
- wheel_left_joint
- wheel_right_joint
position:
- 28.0875667965828
- 41.87708449456786
velocity:
- 4.9929570552667615
- 4.764907151436934
effort: []
---
header:
  stamp:
    sec: 103
    nanosec: 700000000
  frame_id: ''
name:
- wheel_left_joint
- wheel_right_joint
position:
- 28.265070943879778
- 42.037209422383796
velocity:
- 5.37557715598251
- 4.7521994777939245
effort: []
---
header:
  stamp:
    sec: 103
    nanosec: 734000000
  frame_id: ''
name:
- wheel_left_joint
- wheel_right_joint
position:
- 28.4425941294247
- 42.19727724934336
velocity:
- 5.209624171709976
- 4.741071217102595
effort: []
---
header:
  stamp:
    sec: 103
    nanosec: 768000000
  frame_id: ''
name:
- wheel_left_joint
- wheel_right_joint
position:
- 28.62012519596837
- 42.35733007466637
velocity:
- 5.195981245911564
- 4.739569038405678
effort: []
---
header:
  stamp:
    sec: 103
    nanosec: 802000000
  frame_id: ''
name:
- wheel_left_joint
- wheel_right_joint
position:
- 28.776820809826813
- 42.503797009624094
velocity:
- 4.585275943013848
- 4.34266424396817
effort: []
---
header:
  stamp:
    sec: 103
    nanosec: 836000000
  frame_id: ''
name:
- wheel_left_joint
- wheel_right_joint
position:
- 28.94024993614567
- 42.649759894483815
velocity:
- 4.8239740008778185
- 4.321914087154076
effort: []
---
header:
  stamp:
    sec: 103
    nanosec: 870000000
  frame_id: ''
name:
- wheel_left_joint
- wheel_right_joint
position:
- 29.103706283488464
- 42.79564656847771
velocity:
- 4.8697614961353555
- 4.371162328920894
effort: []
---
header:
  stamp:
    sec: 103
    nanosec: 904000000
  frame_id: ''
name:
- wheel_left_joint
- wheel_right_joint
position:
- 29.267395740159902
- 42.941993685052935
velocity:
- 5.136583758026279
- 4.330909896590712
effort: []
---
header:
  stamp:
    sec: 103
    nanosec: 938000000
  frame_id: ''
name:
- wheel_left_joint
- wheel_right_joint
position:
- 29.39833944798251
- 43.07473637391934
velocity:
- 3.9101591151461585
- 3.9285811124691237
effort: []
---
header:
  stamp:
    sec: 103
    nanosec: 972000000
  frame_id: ''
name:
- wheel_left_joint
- wheel_right_joint
position:
- 29.544885622402568
- 43.20705655719111
velocity:
- 4.328891859693897
- 3.915509629747428
effort: []
---
header:
  stamp:
    sec: 104
    nanosec: 6000000
  frame_id: ''
name:
- wheel_left_joint
- wheel_right_joint
position:
- 29.694192386734283
- 43.33899265941626
velocity:
- 4.5912910077274995
- 3.9169553098223253
effort: []
---
header:
  stamp:
    sec: 104
    nanosec: 40000000
  frame_id: ''
name:
- wheel_left_joint
- wheel_right_joint
position:
- 29.843529450385304
- 43.470848863168925
velocity:
- 4.4536705293901155
- 3.950655854994459
effort: []
---
header:
  stamp:
    sec: 104
    nanosec: 74000000
  frame_id: ''
name:
- wheel_left_joint
- wheel_right_joint
position:
- 29.99285867108039
- 43.60271667644353
velocity:
- 4.446877114315726
- 3.9333781302696176
effort: []
---
header:
  stamp:
    sec: 104
    nanosec: 108000000
  frame_id: ''
name:
- wheel_left_joint
- wheel_right_joint
position:
- 30.12296193347957
- 43.720201850516844
velocity:
- 4.0709441965310225
- 3.4973961125690836
effort: []
---
header:
  stamp:
    sec: 104
    nanosec: 142000000
  frame_id: ''
name:
- wheel_left_joint
- wheel_right_joint
position:
- 30.25819311509344
- 43.83797220974067
velocity:
- 4.0977276109553396
- 3.50369483665888
effort: []
---
header:
  stamp:
    sec: 104
    nanosec: 176000000
  frame_id: ''
name:
- wheel_left_joint
- wheel_right_joint
position:
- 30.393437926883667
- 43.955640362950696
velocity:
- 3.9907707714733824
- 3.517488384059102
effort: []
---
header:
  stamp:
    sec: 104
    nanosec: 210000000
  frame_id: ''
name:
- wheel_left_joint
- wheel_right_joint
position:
- 30.52871042863189
- 44.073421572457725
velocity:
- 3.926771769370843
- 3.496587819657045
effort: []
---
header:
  stamp:
    sec: 104
    nanosec: 244000000
  frame_id: ''
name:
- wheel_left_joint
- wheel_right_joint
position:
- 30.66398120359081
- 44.191084862739025
velocity:
- 4.0675916393205025
- 3.493355110788703
effort: []
---
header:
  stamp:
    sec: 31
    nanosec: 756000000
  frame_id: ''
name:
- wheel_left_joint
- wheel_right_joint
position:
- 0.519294304912
- 0.5209942914962706
velocity:
- 5.1519311616997
- 4.747747975950868
effort: []
---
header:
  stamp:
    sec: 104
    nanosec: 278000000
  frame_id: ''
name:
- wheel_left_joint
- wheel_right_joint
position:
- 30.799442333003917
- 44.30908133448482
velocity:
- 4.00524759283815
- 3.516746402035439
effort: []
---
header:
  stamp:
    sec: 104
    nanosec: 312000000
  frame_id: ''
name:
- wheel_left_joint
- wheel_right_joint
position:
- 30.964923920820702
- 44.462068955083986
velocity:
- 4.800173655327946
- 4.498820091239795
effort: []
---
header:
  stamp:
    sec: 104
    nanosec: 346000000
  frame_id: ''
name:
- wheel_left_joint
- wheel_right_joint
position:
- 31.16538908438915
- 44.65021935882331
velocity:
- 5.9262275287703785
- 5.569550178136503
effort: []
---
header:
  stamp:
    sec: 104
    nanosec: 380000000
  frame_id: ''
name:
- wheel_left_joint
- wheel_right_joint
position:
- 31.383363895791923
- 44.85246178031846
velocity:
- 6.373938628832384
- 5.959202070194967
effort: []
---
header:
  stamp:
    sec: 104
    nanosec: 414000000
  frame_id: ''
name:
- wheel_left_joint
- wheel_right_joint
position:
- 31.58970260075457
- 45.04151130275811
velocity:
- 6.287472456375297
- 5.591172130236784
effort: []
---
header:
  stamp:
    sec: 31
    nanosec: 790000000
  frame_id: ''
name:
- wheel_left_joint
- wheel_right_joint
position:
- 0.6962486914860859
- 0.6824270414268199
velocity:
- 5.205575068165736
- 4.748293638654146
effort: []
---
header:
  stamp:
    sec: 104
    nanosec: 448000000
  frame_id: ''
name:
- wheel_left_joint
- wheel_right_joint
position:
- 31.79539092187531
- 45.22989050844757
velocity:
- 6.102793358383754
- 5.573103671381492
effort: []
---
header:
  stamp:
    sec: 104
    nanosec: 482000000
  frame_id: ''
name:
- wheel_left_joint
- wheel_right_joint
position:
- 32.00108314189703
- 45.418261781038915
velocity:
- 6.054706693091959
- 5.579986297493749
effort: []
---
header:
  stamp:
    sec: 104
    nanosec: 516000000
  frame_id: ''
name:
- wheel_left_joint
- wheel_right_joint
position:
- 32.20679521111946
- 45.606592476908084
velocity:
- 6.158189396326484
- 5.576432864011004
effort: []
---
header:
  stamp:
    sec: 104
    nanosec: 550000000
  frame_id: ''
name:
- wheel_left_joint
- wheel_right_joint
position:
- 32.394872357959244
- 45.78138646911104
velocity:
- 5.592901636309611
- 5.184925448116523
effort: []
---
header:
  stamp:
    sec: 104
    nanosec: 584000000
  frame_id: ''
name:
- wheel_left_joint
- wheel_right_joint
position:
- 32.56974415033206
- 45.941325545254955
velocity:
- 5.132570033024647
- 4.711450002475908
effort: []
---
header:
  stamp:
    sec: 104
    nanosec: 618000000
  frame_id: ''
name:
- wheel_left_joint
- wheel_right_joint
position:
- 32.74726942712813
- 46.1014111999703
velocity:
- 5.681613046426437
- 4.778788122625016
effort: []
---
header:
  stamp:
    sec: 31
    nanosec: 824000000
  frame_id: ''
name:
- wheel_left_joint
- wheel_right_joint
position:
- 0.873207544220798
- 0.8438494176534581
velocity:
- 5.2048071733958166
- 4.747567374083173
effort: []
---
header:
  stamp:
    sec: 104
    nanosec: 652000000
  frame_id: ''
name:
- wheel_left_joint
- wheel_right_joint
position:
- 32.90601341815576
- 46.260088774110756
velocity:
- 4.867015175412721
- 4.7119492243836
effort: []
---
header:
  stamp:
    sec: 104
    nanosec: 686000000
  frame_id: ''
name:
- wheel_left_joint
- wheel_right_joint
position:
- 33.07618231005075
- 46.420113047559994
velocity:
- 5.060319029860507
- 4.770181310044195
effort: []
---
header:
  stamp:
    sec: 104
    nanosec: 720000000
  frame_id: ''
name:
- wheel_left_joint
- wheel_right_joint
position:
- 33.25371968192919
- 46.58016194899448
velocity:
- 5.200264943934898
- 4.746788256715728
effort: []
---
header:
  stamp:
    sec: 104
    nanosec: 754000000
  frame_id: ''
name:
- wheel_left_joint
- wheel_right_joint
position:
- 33.409996733315594
- 46.725997925437014
velocity:
- 4.626091995197962
- 4.349930079382567
effort: []
---
header:
  stamp:
    sec: 104
    nanosec: 788000000
  frame_id: ''
name:
- wheel_left_joint
- wheel_right_joint
position:
- 33.573468135147856
- 46.871879658512654
velocity:
- 4.72770177375691
- 4.32280204380447
effort: []
---
header:
  stamp:
    sec: 104
    nanosec: 822000000
  frame_id: ''
name:
- wheel_left_joint
- wheel_right_joint
position:
- 33.73713389012328
- 47.017932029552966
velocity:
- 5.077770937295566
- 4.336357800231856
effort: []
---
header:
  stamp:
    sec: 31
    nanosec: 858000000
  frame_id: ''
name:
- wheel_left_joint
- wheel_right_joint
position:
- 1.0501664698487234
- 1.0052715545386688
velocity:
- 5.204808669088777
- 4.747561124486739
effort: []
---
header:
  stamp:
    sec: 104
    nanosec: 856000000
  frame_id: ''
name:
- wheel_left_joint
- wheel_right_joint
position:
- 33.90097740426414
- 47.16431367813158
velocity:
- 5.051699999895224
- 4.322655141009936
effort: []
---
header:
  stamp:
    sec: 104
    nanosec: 890000000
  frame_id: ''
name:
- wheel_left_joint
- wheel_right_joint
position:
- 34.06464809655701
- 47.31042770582641
velocity:
- 5.494158864383214
- 4.368644597925298
effort: []
---
header:
  stamp:
    sec: 31
    nanosec: 892000000
  frame_id: ''
name:
- wheel_left_joint
- wheel_right_joint
position:
- 1.2112186717779592
- 1.1525511397849213
velocity:
- 4.736857672977
- 4.33181333210625
effort: []
---
header:
  stamp:
    sec: 104
    nanosec: 924000000
  frame_id: ''
name:
- wheel_left_joint
- wheel_right_joint
position:
- 34.18598685550154
- 47.44080311990049
velocity:
- 3.4304204929498976
- 3.877761212483062
effort: []
---
header:
  stamp:
    sec: 104
    nanosec: 958000000
  frame_id: ''
name:
- wheel_left_joint
- wheel_right_joint
position:
- 34.33930620181603
- 47.57283769624025
velocity:
- 4.55948680148089
- 3.95500032728675
effort: []
---
header:
  stamp:
    sec: 105
    nanosec: 26000000
  frame_id: ''
name:
- wheel_left_joint
- wheel_right_joint
position:
- 34.620568443171976
- 47.85080805323028
velocity:
- 4.1327531005556954
- 4.136035924470175
effort: []
---
header:
  stamp:
    sec: 105
    nanosec: 128000000
  frame_id: ''
name:
- wheel_left_joint
- wheel_right_joint
position:
- 34.828687673996136
- 48.056060110947946
velocity:
- 1.1308693691272886
- 1.0592997747223503
effort: []
---
header:
  stamp:
    sec: 105
    nanosec: 332000000
  frame_id: ''
name:
- wheel_left_joint
- wheel_right_joint
position:
- 34.94932432393667
- 47.93087937238807
velocity:
- 0.7693904449085236
- -0.6755601290173104
effort: []
---
header:
  stamp:
    sec: 105
    nanosec: 570000000
  frame_id: ''
name:
- wheel_left_joint
- wheel_right_joint
position:
- 35.09101101534284
- 47.756954734047525
velocity:
- 0.6987638716346867
- -0.7053868447956746
effort: []
---
header:
  stamp:
    sec: 105
    nanosec: 604000000
  frame_id: ''
name:
- wheel_left_joint
- wheel_right_joint
position:
- 35.11497394231415
- 47.73217180001204
velocity:
- 0.482232714526989
- -0.6919169959466276
effort: []
---
header:
  stamp:
    sec: 105
    nanosec: 638000000
  frame_id: ''
name:
- wheel_left_joint
- wheel_right_joint
position:
- 35.138956578062206
- 47.707347183101085
velocity:
- 0.7905757213906602
- -0.6771146441131904
effort: []
---
header:
  stamp:
    sec: 105
    nanosec: 672000000
  frame_id: ''
name:
- wheel_left_joint
- wheel_right_joint
position:
- 35.16290451291409
- 47.68260040823337
velocity:
- 0.6145206607888298
- -0.6889184162979812
effort: []
---
header:
  stamp:
    sec: 105
    nanosec: 706000000
  frame_id: ''
name:
- wheel_left_joint
- wheel_right_joint
position:
- 35.18685508264195
- 47.65784912605178
velocity:
- 0.7548646910482919
- -0.6764192014121805
effort: []
---
header:
  stamp:
    sec: 105
    nanosec: 740000000
  frame_id: ''
name:
- wheel_left_joint
- wheel_right_joint
position:
- 35.21081605091721
- 47.63307799574722
velocity:
- 0.7116125537861858
- -0.6763054563556054
effort: []
---
header:
  stamp:
    sec: 105
    nanosec: 774000000
  frame_id: ''
name:
- wheel_left_joint
- wheel_right_joint
position:
- 35.234786717872566
- 47.60828712814069
velocity:
- 0.8303141565866212
- -0.678202620795429
effort: []
---
header:
  stamp:
    sec: 105
    nanosec: 808000000
  frame_id: ''
name:
- wheel_left_joint
- wheel_right_joint
position:
- 35.25876710956162
- 47.58347116944137
velocity:
- 0.8311771614052686
- -0.6931496448807133
effort: []
---
header:
  stamp:
    sec: 31
    nanosec: 926000000
  frame_id: ''
name:
- wheel_left_joint
- wheel_right_joint
position:
- 1.3599798748572338
- 1.2857764248567145
velocity:
- 4.375568773493515
- 3.9179409542949237
effort: []
---
header:
  stamp:
    sec: 105
    nanosec: 842000000
  frame_id: ''
name:
- wheel_left_joint
- wheel_right_joint
position:
- 35.28273774924614
- 47.558686509517315
velocity:
- 0.4687170734699658
- -0.7035025853646439
effort: []
---
header:
  stamp:
    sec: 105
    nanosec: 876000000
  frame_id: ''
name:
- wheel_left_joint
- wheel_right_joint
position:
- 35.306690420876905
- 47.5339427831484
velocity:
- 0.7880493298789052
- -0.6696810446630803
effort: []
---
header:
  stamp:
    sec: 105
    nanosec: 910000000
  frame_id: ''
name:
- wheel_left_joint
- wheel_right_joint
position:
- 35.330662064630545
- 47.5091566541292
velocity:
- 0.5063104945041309
- -0.6957172642568082
effort: []
---
header:
  stamp:
    sec: 105
    nanosec: 944000000
  frame_id: ''
name:
- wheel_left_joint
- wheel_right_joint
position:
- 35.35463854875698
- 47.48435784502671
velocity:
- 0.8414754156622294
- -0.6621201739695715
effort: []
---
header:
  stamp:
    sec: 105
    nanosec: 978000000
  frame_id: ''
name:
- wheel_left_joint
- wheel_right_joint
position:
- 35.33909982466592
- 47.48103524820726
velocity:
- -0.5381214907051838
- -0.06695701421735215
effort: []
---
header:
  stamp:
    sec: 31
    nanosec: 960000000
  frame_id: ''
name:
- wheel_left_joint
- wheel_right_joint
position:
- 1.4737141778668912
- 1.3839648793505832
velocity:
- 3.345652676068167
- 2.8879391982725418
effort: []
---
header:
  stamp:
    sec: 106
    nanosec: 12000000
  frame_id: ''
name:
- wheel_left_joint
- wheel_right_joint
position:
- 35.341665133679626
- 47.480449427688264
velocity:
- -0.05889725521934726
- 0.02988005316409042
effort: []
---
header:
  stamp:
    sec: 106
    nanosec: 46000000
  frame_id: ''
name:
- wheel_left_joint
- wheel_right_joint
position:
- 35.342298794893814
- 47.47898894471891
velocity:
- 0.31213593754919206
- 0.009755323684749493
effort: []
---
header:
  stamp:
    sec: 106
    nanosec: 80000000
  frame_id: ''
name:
- wheel_left_joint
- wheel_right_joint
position:
- 35.33430099380165
- 47.477952017987676
velocity:
- -0.0042681476133180005
- 0.024552334052791183
effort: []
---
header:
  stamp:
    sec: 106
    nanosec: 114000000
  frame_id: ''
name:
- wheel_left_joint
- wheel_right_joint
position:
- 35.33492273952177
- 47.47652296552569
velocity:
- 0.08934040568358699
- 0.01914560010520483
effort: []
---
header:
  stamp:
    sec: 106
    nanosec: 148000000
  frame_id: ''
name:
- wheel_left_joint
- wheel_right_joint
position:
- 35.3355665399165
- 47.47503798099538
velocity:
- 0.3003496311757821
- 0.008992804823725185
effort: []
---
header:
  stamp:
    sec: 106
    nanosec: 182000000
  frame_id: ''
name:
- wheel_left_joint
- wheel_right_joint
position:
- 35.336198268847625
- 47.473584035551234
velocity:
- 0.034155045323707764
- -0.024733893220802185
effort: []
---
header:
  stamp:
    sec: 31
    nanosec: 994000000
  frame_id: ''
name:
- wheel_left_joint
- wheel_right_joint
position:
- 1.552418167097712
- 1.4471231679590009
velocity:
- 2.314966031832807
- 1.8573248391297414
effort: []
---
header:
  stamp:
    sec: 106
    nanosec: 284000000
  frame_id: ''
name:
- wheel_left_joint
- wheel_right_joint
position:
- 35.33807656045725
- 47.469251367491914
velocity:
- -0.21426197536951752
- -0.014226793143094111
effort: []
---
header:
  stamp:
    sec: 106
    nanosec: 318000000
  frame_id: ''
name:
- wheel_left_joint
- wheel_right_joint
position:
- 35.33870099246052
- 47.467809691700204
velocity:
- 0.03642820901138155
- -0.02522753425714251
effort: []
---
header:
  stamp:
    sec: 106
    nanosec: 352000000
  frame_id: ''
name:
- wheel_left_joint
- wheel_right_joint
position:
- 35.33932965404816
- 47.46635832100946
velocity:
- 0.1525492317728008
- 0.028574926193272114
effort: []
---
header:
  stamp:
    sec: 106
    nanosec: 454000000
  frame_id: ''
name:
- wheel_left_joint
- wheel_right_joint
position:
- 35.34412596438316
- 47.462182587824714
velocity:
- 0.09520684527406637
- -0.012873930269148157
effort: []
---
header:
  stamp:
    sec: 106
    nanosec: 488000000
  frame_id: ''
name:
- wheel_left_joint
- wheel_right_joint
position:
- 35.34473748349548
- 47.4607721175908
velocity:
- 0.08857675170403723
- 0.011954229253893547
effort: []
---
header:
  stamp:
    sec: 106
    nanosec: 522000000
  frame_id: ''
name:
- wheel_left_joint
- wheel_right_joint
position:
- 35.345350019061144
- 47.45936103574304
velocity:
- -0.036697459897382885
- -0.01481993479042699
effort: []
---
header:
  stamp:
    sec: 106
    nanosec: 556000000
  frame_id: ''
name:
- wheel_left_joint
- wheel_right_joint
position:
- 35.346000708119654
- 47.457869822154144
velocity:
- 0.5145420313898019
- 0.028018762246686674
effort: []
---
header:
  stamp:
    sec: 106
    nanosec: 624000000
  frame_id: ''
name:
- wheel_left_joint
- wheel_right_joint
position:
- 35.33265998541201
- 47.45422176278601
velocity:
- 0.08083613714951605
- 0.013892066298898064
effort: []
---
header:
  stamp:
    sec: 106
    nanosec: 658000000
  frame_id: ''
name:
- wheel_left_joint
- wheel_right_joint
position:
- 35.333282683463594
- 47.45278916831442
velocity:
- 0.2573709927901395
- 0.00534563480698929
effort: []
---
header:
  stamp:
    sec: 32
    nanosec: 28000000
  frame_id: ''
name:
- wheel_left_joint
- wheel_right_joint
position:
- 1.5960919350124447
- 1.4752512571336416
velocity:
- 1.2851382793733068
- 0.827406856916597
effort: []
---
header:
  stamp:
    sec: 106
    nanosec: 692000000
  frame_id: ''
name:
- wheel_left_joint
- wheel_right_joint
position:
- 35.33388754281824
- 47.451396705195336
velocity:
- 0.1783437081655303
- -7.418050393042872e-05
effort: []
---
header:
  stamp:
    sec: 106
    nanosec: 726000000
  frame_id: ''
name:
- wheel_left_joint
- wheel_right_joint
position:
- 35.33450209991261
- 47.449977304118875
velocity:
- 0.11224768900189168
- 0.023151979450409234
effort: []
---
header:
  stamp:
    sec: 106
    nanosec: 760000000
  frame_id: ''
name:
- wheel_left_joint
- wheel_right_joint
position:
- 35.33512085070086
- 47.448552133680366
velocity:
- 0.08546639820340424
- 0.013037292443784512
effort: []
---
header:
  stamp:
    sec: 106
    nanosec: 828000000
  frame_id: ''
name:
- wheel_left_joint
- wheel_right_joint
position:
- 35.33634090994214
- 47.4457266531035
velocity:
- 0.03364566608210032
- -0.03145735531881773
effort: []
---
header:
  stamp:
    sec: 106
    nanosec: 862000000
  frame_id: ''
name:
- wheel_left_joint
- wheel_right_joint
position:
- 35.33694324343864
- 47.44434333685095
velocity:
- 0.14414662846168547
- 0.014495531951848925
effort: []
---
header:
  stamp:
    sec: 106
    nanosec: 896000000
  frame_id: ''
name:
- wheel_left_joint
- wheel_right_joint
position:
- 35.33755728916413
- 47.44293802627449
velocity:
- 0.119937028662048
- -0.0007249584758284508
effort: []
---
header:
  stamp:
    sec: 106
    nanosec: 930000000
  frame_id: ''
name:
- wheel_left_joint
- wheel_right_joint
position:
- 35.338164313916664
- 47.441541741493836
velocity:
- 0.07512933028070257
- 0.020189176286630653
effort: []
---
header:
  stamp:
    sec: 32
    nanosec: 62000000
  frame_id: ''
name:
- wheel_left_joint
- wheel_right_joint
position:
- 1.6047521572430856
- 1.4752065121852223
velocity:
- 0.2549105244316832
- -0.0002175943463171039
effort: []
---
header:
  stamp:
    sec: 106
    nanosec: 964000000
  frame_id: ''
name:
- wheel_left_joint
- wheel_right_joint
position:
- 35.33877485721278
- 47.440128925503856
velocity:
- 0.318784779117291
- -0.0030111756321841415
effort: []
---
header:
  stamp:
    sec: 106
    nanosec: 998000000
  frame_id: ''
name:
- wheel_left_joint
- wheel_right_joint
position:
- 35.31400918668668
- 47.4379249863679
velocity:
- -0.9546595652705625
- -0.03276712766305722
effort: []
---
header:
  stamp:
    sec: 107
    nanosec: 32000000
  frame_id: ''
name:
- wheel_left_joint
- wheel_right_joint
position:
- 35.321560973393844
- 47.437184878562526
velocity:
- 0.3441720782241581
- 0.042622041293469484
effort: []
---
header:
  stamp:
    sec: 32
    nanosec: 96000000
  frame_id: ''
name:
- wheel_left_joint
- wheel_right_joint
position:
- 1.6047654334712806
- 1.4751700108972194
velocity:
- 0.00040899896148739886
- 0.0003665302170995407
effort: []
---
header:
  stamp:
    sec: 32
    nanosec: 130000000
  frame_id: ''
name:
- wheel_left_joint
- wheel_right_joint
position:
- 1.6047592503024948
- 1.4751792557466992
velocity:
- -7.463248557082166e-05
- 0.0001452178749676114
effort: []
---
header:
  stamp:
    sec: 32
    nanosec: 164000000
  frame_id: ''
name:
- wheel_left_joint
- wheel_right_joint
position:
- 1.6047527647905806
- 1.475189315151269
velocity:
- -7.728948668789303e-05
- 0.000151066677361054
effort: []
---
header:
  stamp:
    sec: 32
    nanosec: 198000000
  frame_id: ''
name:
- wheel_left_joint
- wheel_right_joint
position:
- 1.6047461439065227
- 1.4751994702064604
velocity:
- 0.0003476473196154038
- 0.0005165251252887591
effort: []
---
header:
  stamp:
    sec: 32
    nanosec: 232000000
  frame_id: ''
name:
- wheel_left_joint
- wheel_right_joint
position:
- 1.6047395228253176
- 1.4752096189151835
velocity:
- -7.803583206068831e-05
- 0.00015259889613771752
effort: []
---
header:
  stamp:
    sec: 32
    nanosec: 266000000
  frame_id: ''
name:
- wheel_left_joint
- wheel_right_joint
position:
- 1.6047329547081919
- 1.475219734085674
velocity:
- -7.5019626103959e-05
- 0.00014626356649564704
effort: []
---
header:
  stamp:
    sec: 32
    nanosec: 300000000
  frame_id: ''
name:
- wheel_left_joint
- wheel_right_joint
position:
- 1.6047264054039303
- 1.4752298315120198
velocity:
- -7.35322151376003e-05
- 0.00014340545322814174
effort: []
---
header:
  stamp:
    sec: 32
    nanosec: 334000000
  frame_id: ''
name:
- wheel_left_joint
- wheel_right_joint
position:
- 1.6047198440715373
- 1.475239953244972
velocity:
- -7.569849251010379e-05
- 0.00014774704309335456
effort: []
---
header:
  stamp:
    sec: 32
    nanosec: 368000000
  frame_id: ''
name:
- wheel_left_joint
- wheel_right_joint
position:
- 1.6047132414865928
- 1.4752500949027674
velocity:
- -7.713754829548748e-05
- 0.00015086437996042674
effort: []
---
header:
  stamp:
    sec: 32
    nanosec: 402000000
  frame_id: ''
name:
- wheel_left_joint
- wheel_right_joint
position:
- 1.604706678884078
- 1.4752601910710483
velocity:
- -7.467375584391776e-05
- 0.0001457363585159457
effort: []
---
header:
  stamp:
    sec: 32
    nanosec: 436000000
  frame_id: ''
name:
- wheel_left_joint
- wheel_right_joint
position:
- 1.6047001238544905
- 1.4752703527686863
velocity:
- -7.358087129881322e-05
- 0.0001437599523698668
effort: []
---
header:
  stamp:
    sec: 32
    nanosec: 470000000
  frame_id: ''
name:
- wheel_left_joint
- wheel_right_joint
position:
- 1.6046935417698833
- 1.4752804511724174
velocity:
- -7.343911802469311e-05
- 0.0001431896538890919
effort: []
---
header:
  stamp:
    sec: 32
    nanosec: 504000000
  frame_id: ''
name:
- wheel_left_joint
- wheel_right_joint
position:
- 1.604687004040997
- 1.47529057538563
velocity:
- -7.332209746042191e-05
- 0.00014315985712082474
effort: []
---
header:
  stamp:
    sec: 32
    nanosec: 538000000
  frame_id: ''
name:
- wheel_left_joint
- wheel_right_joint
position:
- 1.604680410805189
- 1.475300687042604
velocity:
- -7.440423977310125e-05
- 0.00014511454941764897
effort: []
---
header:
  stamp:
    sec: 32
    nanosec: 572000000
  frame_id: ''
name:
- wheel_left_joint
- wheel_right_joint
position:
- 1.6046738659972757
- 1.4753108362098724
velocity:
- -7.417325479048588e-05
- 0.00014508925273445548
effort: []
---
header:
  stamp:
    sec: 32
    nanosec: 606000000
  frame_id: ''
name:
- wheel_left_joint
- wheel_right_joint
position:
- 1.6046673027557503
- 1.475320960629757
velocity:
- -7.392479353105766e-05
- 0.00014424734642719478
effort: []
---
header:
  stamp:
    sec: 32
    nanosec: 640000000
  frame_id: ''
name:
- wheel_left_joint
- wheel_right_joint
position:
- 1.604660726011435
- 1.4753311115648273
velocity:
- 0.00025702384037068135
- 0.0004240103568141024
effort: []
---
header:
  stamp:
    sec: 32
    nanosec: 674000000
  frame_id: ''
name:
- wheel_left_joint
- wheel_right_joint
position:
- 1.6046541271760564
- 1.4753412426083807
velocity:
- 0.00025710129454527275
- 0.0004244113115238913
effort: []
---
header:
  stamp:
    sec: 32
    nanosec: 708000000
  frame_id: ''
name:
- wheel_left_joint
- wheel_right_joint
position:
- 1.6046475955297907
- 1.4753513976011492
velocity:
- 0.0005370451863136328
- 0.0006688238194627978
effort: []
---
header:
  stamp:
    sec: 32
    nanosec: 742000000
  frame_id: ''
name:
- wheel_left_joint
- wheel_right_joint
position:
- 1.604641016449273
- 1.4753615159699054
velocity:
- 0.00026104389228439554
- 0.0004281424504935312
effort: []
---
header:
  stamp:
    sec: 32
    nanosec: 776000000
  frame_id: ''
name:
- wheel_left_joint
- wheel_right_joint
position:
- 1.6046344578568483
- 1.475371644566568
velocity:
- 0.000256989078217168
- 0.0004225838302217809
effort: []
---
header:
  stamp:
    sec: 32
    nanosec: 810000000
  frame_id: ''
name:
- wheel_left_joint
- wheel_right_joint
position:
- 1.6046278946349926
- 1.4753817954257364
velocity:
- 0.0005493987403963549
- 0.0006837657752518456
effort: []
---
header:
  stamp:
    sec: 32
    nanosec: 844000000
  frame_id: ''
name:
- wheel_left_joint
- wheel_right_joint
position:
- 1.6046213182143418
- 1.4753919272204161
velocity:
- 0.0005370594332065924
- 0.0006687476108584384
effort: []
---
header:
  stamp:
    sec: 32
    nanosec: 878000000
  frame_id: ''
name:
- wheel_left_joint
- wheel_right_joint
position:
- 1.6046148014761261
- 1.4754021037796887
velocity:
- 0.0005841283642648723
- 0.0007227960119812072
effort: []
---
header:
  stamp:
    sec: 32
    nanosec: 912000000
  frame_id: ''
name:
- wheel_left_joint
- wheel_right_joint
position:
- 1.6046082505075727
- 1.4754122122640485
velocity:
- 0.0003496726659529539
- 0.0005202435047342779
effort: []
---
header:
  stamp:
    sec: 32
    nanosec: 946000000
  frame_id: ''
name:
- wheel_left_joint
- wheel_right_joint
position:
- 1.604601664022809
- 1.4754223316150856
velocity:
- -7.546756584710882e-05
- 0.0001473849245777841
effort: []
---
header:
  stamp:
    sec: 32
    nanosec: 980000000
  frame_id: ''
name:
- wheel_left_joint
- wheel_right_joint
position:
- 1.6045950972466354
- 1.4754324867702282
velocity:
- -7.377047404928325e-05
- 0.00014391331178319417
effort: []
---
header:
  stamp:
    sec: 33
    nanosec: 14000000
  frame_id: ''
name:
- wheel_left_joint
- wheel_right_joint
position:
- 1.6045885564331037
- 1.4754426134690863
velocity:
- -7.332067729795251e-05
- 0.0001431564300760843
effort: []
---
header:
  stamp:
    sec: 33
    nanosec: 48000000
  frame_id: ''
name:
- wheel_left_joint
- wheel_right_joint
position:
- 1.6045819672613426
- 1.4754527234503376
velocity:
- -7.440335249935372e-05
- 0.00014511114622569894
effort: []
---
header:
  stamp:
    sec: 33
    nanosec: 82000000
  frame_id: ''
name:
- wheel_left_joint
- wheel_right_joint
position:
- 1.604575437015562
- 1.4754628840987571
velocity:
- -7.538963629262485e-05
- 0.00014732043526897868
effort: []
---
header:
  stamp:
    sec: 33
    nanosec: 116000000
  frame_id: ''
name:
- wheel_left_joint
- wheel_right_joint
position:
- 1.6045688441691546
- 1.4754729951909749
velocity:
- -7.715951447077461e-05
- 0.00015091070075697066
effort: []
---
header:
  stamp:
    sec: 33
    nanosec: 150000000
  frame_id: ''
name:
- wheel_left_joint
- wheel_right_joint
position:
- 1.6045622798606427
- 1.4754830907470637
velocity:
- -7.46855955191905e-05
- 0.0001457582893866936
effort: []
---
header:
  stamp:
    sec: 33
    nanosec: 184000000
  frame_id: ''
name:
- wheel_left_joint
- wheel_right_joint
position:
- 1.6045557141204814
- 1.4754932272081778
velocity:
- -7.626832826190246e-05
- 0.0001489090527560669
effort: []
---
header:
  stamp:
    sec: 33
    nanosec: 218000000
  frame_id: ''
name:
- wheel_left_joint
- wheel_right_joint
position:
- 1.6045491528973894
- 1.4755033882906865
velocity:
- -7.483282180479733e-05
- 0.00014606631134276866
effort: []
---
header:
  stamp:
    sec: 33
