transforms:
- header:
    stamp:
      sec: 98
      nanosec: 401000000
    frame_id: map
  child_frame_id: odom
  transform:
    translation:
      x: 1.4700067507968167e-05
      y: -8.018590862212218e-07
      z: -0.0041433676463778655
    rotation:
      x: -9.793041486603988e-05
      y: -0.001156099269225359
      z: 1.1323597611272557e-07
      w: 0.9999993269218238
---
transforms:
- header:
    stamp:
      sec: 98
      nanosec: 401000000
    frame_id: map
  child_frame_id: odom
  transform:
    translation:
      x: 1.4700067507968167e-05
      y: -8.018590862212218e-07
      z: -0.0041433676463778655
    rotation:
      x: -9.793041486603988e-05
      y: -0.001156099269225359
      z: 1.1323597611272557e-07
      w: 0.9999993269218238
---
transforms:
- header:
    stamp:
      sec: 98
      nanosec: 401000000
    frame_id: map
  child_frame_id: odom
  transform:
    translation:
      x: 1.4700067507968167e-05
      y: -8.018590862212218e-07
      z: -0.0041433676463778655
    rotation:
      x: -9.793041486603988e-05
      y: -0.001156099269225359
      z: 1.1323597611272557e-07
      w: 0.9999993269218238
---
transforms:
- header:
    stamp:
      sec: 98
      nanosec: 401000000
    frame_id: map
  child_frame_id: odom
  transform:
    translation:
      x: 1.4700067507968167e-05
      y: -8.018590862212218e-07
      z: -0.0041433676463778655
    rotation:
      x: -9.793041486603988e-05
      y: -0.001156099269225359
      z: 1.1323597611272557e-07
      w: 0.9999993269218238
---
transforms:
- header:
    stamp:
      sec: 98
      nanosec: 401000000
    frame_id: map
  child_frame_id: odom
  transform:
    translation:
      x: 1.4700067507968167e-05
      y: -8.018590862212218e-07
      z: -0.0041433676463778655
    rotation:
      x: -9.793041486603988e-05
      y: -0.001156099269225359
      z: 1.1323597611272557e-07
      w: 0.9999993269218238
---
transforms:
- header:
    stamp:
      sec: 98
      nanosec: 401000000
    frame_id: map
  child_frame_id: odom
  transform:
    translation:
      x: 1.4700067507968167e-05
      y: -8.018590862212218e-07
      z: -0.0041433676463778655
    rotation:
      x: -9.793041486603988e-05
      y: -0.001156099269225359
      z: 1.1323597611272557e-07
      w: 0.9999993269218238
---
transforms:
- header:
    stamp:
      sec: 98
      nanosec: 401000000
    frame_id: map
  child_frame_id: odom
  transform:
    translation:
      x: 1.4700067507968167e-05
      y: -8.018590862212218e-07
      z: -0.0041433676463778655
    rotation:
      x: -9.793041486603988e-05
      y: -0.001156099269225359
      z: 1.1323597611272557e-07
      w: 0.9999993269218238
---
transforms:
- header:
    stamp:
      sec: 98
      nanosec: 401000000
    frame_id: map
  child_frame_id: odom
  transform:
    translation:
      x: 1.4700067507968167e-05
      y: -8.018590862212218e-07
      z: -0.0041433676463778655
    rotation:
      x: -9.793041486603988e-05
      y: -0.001156099269225359
      z: 1.1323597611272557e-07
      w: 0.9999993269218238
---
transforms:
- header:
    stamp:
      sec: 98
      nanosec: 401000000
    frame_id: map
  child_frame_id: odom
  transform:
    translation:
      x: 1.4700067507968167e-05
      y: -8.018590862212218e-07
      z: -0.0041433676463778655
    rotation:
      x: -9.793041486603988e-05
      y: -0.001156099269225359
      z: 1.1323597611272557e-07
      w: 0.9999993269218238
---
transforms:
- header:
    stamp:
      sec: 98
      nanosec: 401000000
    frame_id: map
  child_frame_id: odom
  transform:
    translation:
      x: 1.4700067507968167e-05
      y: -8.018590862212218e-07
      z: -0.0041433676463778655
    rotation:
      x: -9.793041486603988e-05
      y: -0.001156099269225359
      z: 1.1323597611272557e-07
      w: 0.9999993269218238
---
transforms:
- header:
    stamp:
      sec: 99
      nanosec: 382000000
    frame_id: odom
  child_frame_id: base_footprint
  transform:
    translation:
      x: -1.9089320558213037
      y: -0.4678266102361362
      z: 0.008712455971560708
    rotation:
      x: -0.00023459687008774215
      y: 0.0007517667135583803
      z: 0.29172294005094795
      w: 0.9565025384488784
---
transforms:
- header:
    stamp:
      sec: 99
      nanosec: 416000000
    frame_id: odom
  child_frame_id: base_footprint
  transform:
    translation:
      x: -1.9032590168114187
      y: -0.4638754952157048
      z: 0.008725493448723155
    rotation:
      x: -0.000215014142704976
      y: 0.0007215188737933612
      z: 0.3078713200307305
      w: 0.9514277079641779
---
transforms:
- header:
    stamp:
      sec: 99
      nanosec: 601000000
    frame_id: map
  child_frame_id: odom
  transform:
    translation:
      x: 1.4700067507968167e-05
      y: -8.018590862212218e-07
      z: -0.0041433676463778655
    rotation:
      x: -9.793041486603988e-05
      y: -0.001156099269225359
      z: 1.1323597611272557e-07
      w: 0.9999993269218238
---
transforms:
- header:
    stamp:
      sec: 99
      nanosec: 601000000
    frame_id: map
  child_frame_id: odom
  transform:
    translation:
      x: 1.4700067507968167e-05
      y: -8.018590862212218e-07
      z: -0.0041433676463778655
    rotation:
      x: -9.793041486603988e-05
      y: -0.001156099269225359
      z: 1.1323597611272557e-07
      w: 0.9999993269218238
---
transforms:
- header:
    stamp:
      sec: 99
      nanosec: 601000000
    frame_id: map
  child_frame_id: odom
  transform:
    translation:
      x: 1.4700067507968167e-05
      y: -8.018590862212218e-07
      z: -0.0041433676463778655
    rotation:
      x: -9.793041486603988e-05
      y: -0.001156099269225359
      z: 1.1323597611272557e-07
      w: 0.9999993269218238
---
transforms:
- header:
    stamp:
      sec: 99
      nanosec: 601000000
    frame_id: map
  child_frame_id: odom
  transform:
    translation:
      x: 1.4700067507968167e-05
      y: -8.018590862212218e-07
      z: -0.0041433676463778655
    rotation:
      x: -9.793041486603988e-05
      y: -0.001156099269225359
      z: 1.1323597611272557e-07
      w: 0.9999993269218238
---
transforms:
- header:
    stamp:
      sec: 99
      nanosec: 601000000
    frame_id: map
  child_frame_id: odom
  transform:
    translation:
      x: 1.4700067507968167e-05
      y: -8.018590862212218e-07
      z: -0.0041433676463778655
    rotation:
      x: -9.793041486603988e-05
      y: -0.001156099269225359
      z: 1.1323597611272557e-07
      w: 0.9999993269218238
---
transforms:
- header:
    stamp:
      sec: 99
      nanosec: 601000000
    frame_id: map
  child_frame_id: odom
  transform:
    translation:
      x: 1.4700067507968167e-05
      y: -8.018590862212218e-07
      z: -0.0041433676463778655
    rotation:
      x: -9.793041486603988e-05
      y: -0.001156099269225359
      z: 1.1323597611272557e-07
      w: 0.9999993269218238
---
transforms:
- header:
    stamp:
      sec: 99
      nanosec: 601000000
    frame_id: map
  child_frame_id: odom
  transform:
    translation:
      x: 1.4700067507968167e-05
      y: -8.018590862212218e-07
      z: -0.0041433676463778655
    rotation:
      x: -9.793041486603988e-05
      y: -0.001156099269225359
      z: 1.1323597611272557e-07
      w: 0.9999993269218238
---
transforms:
- header:
    stamp:
      sec: 99
      nanosec: 601000000
    frame_id: map
  child_frame_id: odom
  transform:
    translation:
      x: 1.4700067507968167e-05
      y: -8.018590862212218e-07
      z: -0.0041433676463778655
    rotation:
      x: -9.793041486603988e-05
      y: -0.001156099269225359
      z: 1.1323597611272557e-07
      w: 0.9999993269218238
---
transforms:
- header:
    stamp:
      sec: 99
      nanosec: 601000000
    frame_id: map
  child_frame_id: odom
  transform:
    translation:
      x: 1.4700067507968167e-05
      y: -8.018590862212218e-07
      z: -0.0041433676463778655
    rotation:
      x: -9.793041486603988e-05
      y: -0.001156099269225359
      z: 1.1323597611272557e-07
      w: 0.9999993269218238
---
transforms:
- header:
    stamp:
      sec: 99
      nanosec: 601000000
    frame_id: map
  child_frame_id: odom
  transform:
    translation:
      x: 1.4700067507968167e-05
      y: -8.018590862212218e-07
      z: -0.0041433676463778655
    rotation:
      x: -9.793041486603988e-05
      y: -0.001156099269225359
      z: 1.1323597611272557e-07
      w: 0.9999993269218238
---
transforms:
- header:
    stamp:
      sec: 99
      nanosec: 601000000
    frame_id: map
  child_frame_id: odom
  transform:
    translation:
      x: 1.4700067507968167e-05
      y: -8.018590862212218e-07
      z: -0.0041433676463778655
    rotation:
      x: -9.793041486603988e-05
      y: -0.001156099269225359
      z: 1.1323597611272557e-07
      w: 0.9999993269218238
---
transforms:
- header:
    stamp:
      sec: 99
      nanosec: 601000000
    frame_id: map
  child_frame_id: odom
  transform:
    translation:
      x: 1.4700067507968167e-05
      y: -8.018590862212218e-07
      z: -0.0041433676463778655
    rotation:
      x: -9.793041486603988e-05
      y: -0.001156099269225359
      z: 1.1323597611272557e-07
      w: 0.9999993269218238
---
transforms:
- header:
    stamp:
      sec: 99
      nanosec: 601000000
    frame_id: map
  child_frame_id: odom
  transform:
    translation:
      x: 1.4700067507968167e-05
      y: -8.018590862212218e-07
      z: -0.0041433676463778655
    rotation:
      x: -9.793041486603988e-05
      y: -0.001156099269225359
      z: 1.1323597611272557e-07
      w: 0.9999993269218238
---
transforms:
- header:
    stamp:
      sec: 99
      nanosec: 601000000
    frame_id: map
  child_frame_id: odom
  transform:
    translation:
      x: 1.4700067507968167e-05
      y: -8.018590862212218e-07
      z: -0.0041433676463778655
    rotation:
      x: -9.793041486603988e-05
      y: -0.001156099269225359
      z: 1.1323597611272557e-07
      w: 0.9999993269218238
---
transforms:
- header:
    stamp:
      sec: 99
      nanosec: 601000000
    frame_id: map
  child_frame_id: odom
  transform:
    translation:
      x: 1.4700067507968167e-05
      y: -8.018590862212218e-07
      z: -0.0041433676463778655
    rotation:
      x: -9.793041486603988e-05
      y: -0.001156099269225359
      z: 1.1323597611272557e-07
      w: 0.9999993269218238
---
transforms:
- header:
    stamp:
      sec: 99
      nanosec: 601000000
    frame_id: map
  child_frame_id: odom
  transform:
    translation:
      x: 1.4700067507968167e-05
      y: -8.018590862212218e-07
      z: -0.0041433676463778655
    rotation:
      x: -9.793041486603988e-05
      y: -0.001156099269225359
      z: 1.1323597611272557e-07
      w: 0.9999993269218238
---
transforms:
- header:
    stamp:
      sec: 99
      nanosec: 601000000
    frame_id: map
  child_frame_id: odom
  transform:
    translation:
      x: 1.4700067507968167e-05
      y: -8.018590862212218e-07
      z: -0.0041433676463778655
    rotation:
      x: -9.793041486603988e-05
      y: -0.001156099269225359
      z: 1.1323597611272557e-07
      w: 0.9999993269218238
---
transforms:
- header:
    stamp:
      sec: 99
      nanosec: 601000000
    frame_id: map
  child_frame_id: odom
  transform:
    translation:
      x: 1.4700067507968167e-05
      y: -8.018590862212218e-07
      z: -0.0041433676463778655
    rotation:
      x: -9.793041486603988e-05
      y: -0.001156099269225359
      z: 1.1323597611272557e-07
      w: 0.9999993269218238
---
transforms:
- header:
    stamp:
      sec: 99
      nanosec: 601000000
    frame_id: map
  child_frame_id: odom
  transform:
    translation:
      x: 1.4700067507968167e-05
      y: -8.018590862212218e-07
      z: -0.0041433676463778655
    rotation:
      x: -9.793041486603988e-05
      y: -0.001156099269225359
      z: 1.1323597611272557e-07
      w: 0.9999993269218238
---
transforms:
- header:
    stamp:
      sec: 99
      nanosec: 601000000
    frame_id: map
  child_frame_id: odom
  transform:
    translation:
      x: 1.4700067507968167e-05
      y: -8.018590862212218e-07
      z: -0.0041433676463778655
    rotation:
      x: -9.793041486603988e-05
      y: -0.001156099269225359
      z: 1.1323597611272557e-07
      w: 0.9999993269218238
---
transforms:
- header:
    stamp:
      sec: 99
      nanosec: 601000000
    frame_id: map
  child_frame_id: odom
  transform:
    translation:
      x: 1.4700067507968167e-05
      y: -8.018590862212218e-07
      z: -0.0041433676463778655
    rotation:
      x: -9.793041486603988e-05
      y: -0.001156099269225359
      z: 1.1323597611272557e-07
      w: 0.9999993269218238
---
transforms:
- header:
    stamp:
      sec: 99
      nanosec: 601000000
    frame_id: map
  child_frame_id: odom
  transform:
    translation:
      x: 1.4700067507968167e-05
      y: -8.018590862212218e-07
      z: -0.0041433676463778655
    rotation:
      x: -9.793041486603988e-05
      y: -0.001156099269225359
      z: 1.1323597611272557e-07
      w: 0.9999993269218238
---
transforms:
- header:
    stamp:
      sec: 99
      nanosec: 601000000
    frame_id: map
  child_frame_id: odom
  transform:
    translation:
      x: 1.4700067507968167e-05
      y: -8.018590862212218e-07
      z: -0.0041433676463778655
    rotation:
      x: -9.793041486603988e-05
      y: -0.001156099269225359
      z: 1.1323597611272557e-07
      w: 0.9999993269218238
---
transforms:
- header:
    stamp:
      sec: 99
      nanosec: 586000000
    frame_id: odom
  child_frame_id: base_footprint
  transform:
    translation:
      x: -1.871087772816109
      y: -0.43620016905269415
      z: 0.008733735464516373
    rotation:
      x: -0.00026002059799126905
      y: 0.0006937085940967656
      z: 0.38724248106568876
      w: 0.9219776092811391
---
transforms:
- header:
    stamp:
      sec: 99
      nanosec: 601000000
    frame_id: map
  child_frame_id: odom
  transform:
    translation:
      x: 1.4700067507968167e-05
      y: -8.018590862212218e-07
      z: -0.0041433676463778655
    rotation:
      x: -9.793041486603988e-05
      y: -0.001156099269225359
      z: 1.1323597611272557e-07
      w: 0.9999993269218238
---
transforms:
- header:
    stamp:
      sec: 99
      nanosec: 601000000
    frame_id: map
  child_frame_id: odom
  transform:
    translation:
      x: 1.4700067507968167e-05
      y: -8.018590862212218e-07
      z: -0.0041433676463778655
    rotation:
      x: -9.793041486603988e-05
      y: -0.001156099269225359
      z: 1.1323597611272557e-07
      w: 0.9999993269218238
---
transforms:
- header:
    stamp:
      sec: 99
      nanosec: 601000000
    frame_id: map
  child_frame_id: odom
  transform:
    translation:
      x: 1.4700067507968167e-05
      y: -8.018590862212218e-07
      z: -0.0041433676463778655
    rotation:
      x: -9.793041486603988e-05
      y: -0.001156099269225359
      z: 1.1323597611272557e-07
      w: 0.9999993269218238
---
transforms:
- header:
    stamp:
      sec: 99
      nanosec: 601000000
    frame_id: map
  child_frame_id: odom
  transform:
    translation:
      x: 1.4700067507968167e-05
      y: -8.018590862212218e-07
      z: -0.0041433676463778655
    rotation:
      x: -9.793041486603988e-05
      y: -0.001156099269225359
      z: 1.1323597611272557e-07
      w: 0.9999993269218238
---
transforms:
- header:
    stamp:
      sec: 99
      nanosec: 601000000
    frame_id: map
  child_frame_id: odom
  transform:
    translation:
      x: 1.4700067507968167e-05
      y: -8.018590862212218e-07
      z: -0.0041433676463778655
    rotation:
      x: -9.793041486603988e-05
      y: -0.001156099269225359
      z: 1.1323597611272557e-07
      w: 0.9999993269218238
---
transforms:
- header:
    stamp:
      sec: 99
      nanosec: 601000000
    frame_id: map
  child_frame_id: odom
  transform:
    translation:
      x: 1.4700067507968167e-05
      y: -8.018590862212218e-07
      z: -0.0041433676463778655
    rotation:
      x: -9.793041486603988e-05
      y: -0.001156099269225359
      z: 1.1323597611272557e-07
      w: 0.9999993269218238
---
transforms:
- header:
    stamp:
      sec: 99
      nanosec: 601000000
    frame_id: map
  child_frame_id: odom
  transform:
    translation:
      x: 1.4700067507968167e-05
      y: -8.018590862212218e-07
      z: -0.0041433676463778655
    rotation:
      x: -9.793041486603988e-05
      y: -0.001156099269225359
      z: 1.1323597611272557e-07
      w: 0.9999993269218238
---
transforms:
- header:
    stamp:
      sec: 99
      nanosec: 601000000
    frame_id: map
  child_frame_id: odom
  transform:
    translation:
      x: 1.4700067507968167e-05
      y: -8.018590862212218e-07
      z: -0.0041433676463778655
    rotation:
      x: -9.793041486603988e-05
      y: -0.001156099269225359
      z: 1.1323597611272557e-07
      w: 0.9999993269218238
---
transforms:
- header:
    stamp:
      sec: 99
      nanosec: 601000000
    frame_id: map
  child_frame_id: odom
  transform:
    translation:
      x: 1.4700067507968167e-05
      y: -8.018590862212218e-07
      z: -0.0041433676463778655
    rotation:
      x: -9.793041486603988e-05
      y: -0.001156099269225359
      z: 1.1323597611272557e-07
      w: 0.9999993269218238
---
transforms:
- header:
    stamp:
      sec: 99
      nanosec: 601000000
    frame_id: map
  child_frame_id: odom
  transform:
    translation:
      x: 1.4700067507968167e-05
      y: -8.018590862212218e-07
      z: -0.0041433676463778655
    rotation:
      x: -9.793041486603988e-05
      y: -0.001156099269225359
      z: 1.1323597611272557e-07
      w: 0.9999993269218238
---
transforms:
- header:
    stamp:
      sec: 99
      nanosec: 601000000
    frame_id: map
  child_frame_id: odom
  transform:
    translation:
      x: 1.4700067507968167e-05
      y: -8.018590862212218e-07
      z: -0.0041433676463778655
    rotation:
      x: -9.793041486603988e-05
      y: -0.001156099269225359
      z: 1.1323597611272557e-07
      w: 0.9999993269218238
---
transforms:
- header:
    stamp:
      sec: 99
      nanosec: 601000000
    frame_id: map
  child_frame_id: odom
  transform:
    translation:
      x: 1.4700067507968167e-05
      y: -8.018590862212218e-07
      z: -0.0041433676463778655
    rotation:
      x: -9.793041486603988e-05
      y: -0.001156099269225359
      z: 1.1323597611272557e-07
      w: 0.9999993269218238
---
transforms:
- header:
    stamp:
      sec: 99
      nanosec: 601000000
    frame_id: map
  child_frame_id: odom
  transform:
    translation:
      x: 1.4700067507968167e-05
      y: -8.018590862212218e-07
      z: -0.0041433676463778655
    rotation:
      x: -9.793041486603988e-05
      y: -0.001156099269225359
      z: 1.1323597611272557e-07
      w: 0.9999993269218238
---
transforms:
- header:
    stamp:
      sec: 99
      nanosec: 601000000
    frame_id: map
  child_frame_id: odom
  transform:
    translation:
      x: 1.4700067507968167e-05
      y: -8.018590862212218e-07
      z: -0.0041433676463778655
    rotation:
      x: -9.793041486603988e-05
      y: -0.001156099269225359
      z: 1.1323597611272557e-07
      w: 0.9999993269218238
---
transforms:
- header:
    stamp:
      sec: 99
      nanosec: 601000000
    frame_id: map
  child_frame_id: odom
  transform:
    translation:
      x: 1.4700067507968167e-05
      y: -8.018590862212218e-07
      z: -0.0041433676463778655
    rotation:
      x: -9.793041486603988e-05
      y: -0.001156099269225359
      z: 1.1323597611272557e-07
      w: 0.9999993269218238
---
transforms:
- header:
    stamp:
      sec: 99
      nanosec: 601000000
    frame_id: map
  child_frame_id: odom
  transform:
    translation:
      x: 1.4700067507968167e-05
      y: -8.018590862212218e-07
      z: -0.0041433676463778655
    rotation:
      x: -9.793041486603988e-05
      y: -0.001156099269225359
      z: 1.1323597611272557e-07
      w: 0.9999993269218238
---
transforms:
- header:
    stamp:
      sec: 99
      nanosec: 801000000
    frame_id: map
  child_frame_id: odom
  transform:
    translation:
      x: 1.4700067507968167e-05
      y: -8.018590862212218e-07
      z: -0.0041433676463778655
    rotation:
      x: -9.793041486603988e-05
      y: -0.001156099269225359
      z: 1.1323597611272557e-07
      w: 0.9999993269218238
---
transforms:
- header:
    stamp:
      sec: 99
      nanosec: 688000000
    frame_id: base_link
  child_frame_id: wheel_left_link
  transform:
    translation:
      x: 0.0
      y: 0.144
      z: 0.023
    rotation:
      x: -0.5340231402937017
      y: 0.46305628413345923
      z: 0.46342517515845777
      w: 0.5344485666410936
- header:
    stamp:
      sec: 99
      nanosec: 688000000
    frame_id: base_link
  child_frame_id: wheel_right_link
  transform:
    translation:
      x: 0.0
      y: -0.144
      z: 0.023
    rotation:
      x: -0.08081712675514156
      y: 0.70218973836683
      z: 0.7027491336308725
      w: 0.08088150923681316
---
transforms:
- header:
    stamp:
      sec: 99
      nanosec: 801000000
    frame_id: map
  child_frame_id: odom
  transform:
    translation:
      x: 1.4700067507968167e-05
      y: -8.018590862212218e-07
      z: -0.0041433676463778655
    rotation:
      x: -9.793041486603988e-05
      y: -0.001156099269225359
      z: 1.1323597611272557e-07
      w: 0.9999993269218238
---
transforms:
- header:
    stamp:
      sec: 99
      nanosec: 801000000
    frame_id: map
  child_frame_id: odom
  transform:
    translation:
      x: 1.4700067507968167e-05
      y: -8.018590862212218e-07
      z: -0.0041433676463778655
    rotation:
      x: -9.793041486603988e-05
      y: -0.001156099269225359
      z: 1.1323597611272557e-07
      w: 0.9999993269218238
---
transforms:
- header:
    stamp:
      sec: 99
      nanosec: 801000000
    frame_id: map
  child_frame_id: odom
  transform:
    translation:
      x: 1.4700067507968167e-05
      y: -8.018590862212218e-07
      z: -0.0041433676463778655
    rotation:
      x: -9.793041486603988e-05
      y: -0.001156099269225359
      z: 1.1323597611272557e-07
      w: 0.9999993269218238
---
transforms:
- header:
    stamp:
      sec: 99
      nanosec: 801000000
    frame_id: map
  child_frame_id: odom
  transform:
    translation:
      x: 1.4700067507968167e-05
      y: -8.018590862212218e-07
      z: -0.0041433676463778655
    rotation:
      x: -9.793041486603988e-05
      y: -0.001156099269225359
      z: 1.1323597611272557e-07
      w: 0.9999993269218238
---
transforms:
- header:
    stamp:
      sec: 99
      nanosec: 801000000
    frame_id: map
  child_frame_id: odom
  transform:
    translation:
      x: 1.4700067507968167e-05
      y: -8.018590862212218e-07
      z: -0.0041433676463778655
    rotation:
      x: -9.793041486603988e-05
      y: -0.001156099269225359
      z: 1.1323597611272557e-07
      w: 0.9999993269218238
---
transforms:
- header:
    stamp:
      sec: 99
      nanosec: 801000000
    frame_id: map
  child_frame_id: odom
  transform:
    translation:
      x: 1.4700067507968167e-05
      y: -8.018590862212218e-07
      z: -0.0041433676463778655
    rotation:
      x: -9.793041486603988e-05
      y: -0.001156099269225359
      z: 1.1323597611272557e-07
      w: 0.9999993269218238
---
transforms:
- header:
    stamp:
      sec: 99
      nanosec: 801000000
    frame_id: map
  child_frame_id: odom
  transform:
    translation:
      x: 1.4700067507968167e-05
      y: -8.018590862212218e-07
      z: -0.0041433676463778655
    rotation:
      x: -9.793041486603988e-05
      y: -0.001156099269225359
      z: 1.1323597611272557e-07
      w: 0.9999993269218238
---
transforms:
- header:
    stamp:
      sec: 99
      nanosec: 801000000
    frame_id: map
  child_frame_id: odom
  transform:
    translation:
      x: 1.4700067507968167e-05
      y: -8.018590862212218e-07
      z: -0.0041433676463778655
    rotation:
      x: -9.793041486603988e-05
      y: -0.001156099269225359
      z: 1.1323597611272557e-07
      w: 0.9999993269218238
---
transforms:
- header:
    stamp:
      sec: 99
      nanosec: 801000000
    frame_id: map
  child_frame_id: odom
  transform:
    translation:
      x: 1.4700067507968167e-05
      y: -8.018590862212218e-07
      z: -0.0041433676463778655
    rotation:
      x: -9.793041486603988e-05
      y: -0.001156099269225359
      z: 1.1323597611272557e-07
      w: 0.9999993269218238
---
transforms:
- header:
    stamp:
      sec: 99
      nanosec: 801000000
    frame_id: map
  child_frame_id: odom
  transform:
    translation:
      x: 1.4700067507968167e-05
      y: -8.018590862212218e-07
      z: -0.0041433676463778655
    rotation:
      x: -9.793041486603988e-05
      y: -0.001156099269225359
      z: 1.1323597611272557e-07
      w: 0.9999993269218238
---
transforms:
- header:
    stamp:
      sec: 99
      nanosec: 722000000
    frame_id: odom
  child_frame_id: base_footprint
  transform:
    translation:
      x: -1.8481439816898806
      y: -0.40962794173008144
      z: 0.008724920020149457
    rotation:
      x: -0.00031694910644595043
      y: 0.0007036998926305369
      z: 0.4439848285137491
      w: 0.8960339705610172
---
transforms:
- header:
    stamp:
      sec: 99
      nanosec: 756000000
    frame_id: base_link
  child_frame_id: wheel_left_link
  transform:
    translation:
      x: 0.0
      y: 0.144
      z: 0.023
    rotation:
      x: -0.4702927663308033
      y: 0.5276613976609943
      z: 0.528081755964088
      w: 0.4706674222561533
- header:
    stamp:
      sec: 99
      nanosec: 756000000
    frame_id: base_link
  child_frame_id: wheel_right_link
  transform:
    translation:
      x: 0.0
      y: -0.144
      z: 0.023
    rotation:
      x: 0.1944178140639249
      y: 0.6795612924668669
      z: 0.6801026609145416
      w: -0.19457269585511408
---
transforms:
- header:
    stamp:
      sec: 99
      nanosec: 801000000
    frame_id: map
  child_frame_id: odom
  transform:
    translation:
      x: 1.4700067507968167e-05
      y: -8.018590862212218e-07
      z: -0.0041433676463778655
    rotation:
      x: -9.793041486603988e-05
      y: -0.001156099269225359
      z: 1.1323597611272557e-07
      w: 0.9999993269218238
---
transforms:
- header:
    stamp:
      sec: 99
      nanosec: 801000000
    frame_id: map
  child_frame_id: odom
  transform:
    translation:
      x: 1.4700067507968167e-05
      y: -8.018590862212218e-07
      z: -0.0041433676463778655
    rotation:
      x: -9.793041486603988e-05
      y: -0.001156099269225359
      z: 1.1323597611272557e-07
      w: 0.9999993269218238
---
transforms:
- header:
    stamp:
      sec: 99
      nanosec: 801000000
    frame_id: map
  child_frame_id: odom
  transform:
    translation:
      x: 1.4700067507968167e-05
      y: -8.018590862212218e-07
      z: -0.0041433676463778655
    rotation:
      x: -9.793041486603988e-05
      y: -0.001156099269225359
      z: 1.1323597611272557e-07
      w: 0.9999993269218238
---
transforms:
- header:
    stamp:
      sec: 99
      nanosec: 801000000
    frame_id: map
  child_frame_id: odom
  transform:
    translation:
      x: 1.4700067507968167e-05
      y: -8.018590862212218e-07
      z: -0.0041433676463778655
    rotation:
      x: -9.793041486603988e-05
      y: -0.001156099269225359
      z: 1.1323597611272557e-07
      w: 0.9999993269218238
---
transforms:
- header:
    stamp:
      sec: 99
      nanosec: 824000000
    frame_id: odom
  child_frame_id: base_footprint
  transform:
    translation:
      x: -1.8339206636150016
      y: -0.3891137222217588
      z: 0.00872284725832288
    rotation:
      x: -0.000343653434566134
      y: 0.0006943928837726018
      z: 0.4827557239182436
      w: 0.8757547092337058
---
transforms:
- header:
    stamp:
      sec: 100
      nanosec: 1000000
    frame_id: map
  child_frame_id: odom
  transform:
    translation:
      x: 1.4700067507968167e-05
      y: -8.018590862212218e-07
      z: -0.0041433676463778655
    rotation:
      x: -9.793041486603988e-05
      y: -0.001156099269225359
      z: 1.1323597611272557e-07
      w: 0.9999993269218238
---
transforms:
- header:
    stamp:
      sec: 100
      nanosec: 1000000
    frame_id: map
  child_frame_id: odom
  transform:
    translation:
      x: 1.4700067507968167e-05
      y: -8.018590862212218e-07
      z: -0.0041433676463778655
    rotation:
      x: -9.793041486603988e-05
      y: -0.001156099269225359
      z: 1.1323597611272557e-07
      w: 0.9999993269218238
---
transforms:
- header:
    stamp:
      sec: 100
      nanosec: 1000000
    frame_id: map
  child_frame_id: odom
  transform:
    translation:
      x: 1.4700067507968167e-05
      y: -8.018590862212218e-07
      z: -0.0041433676463778655
    rotation:
      x: -9.793041486603988e-05
      y: -0.001156099269225359
      z: 1.1323597611272557e-07
      w: 0.9999993269218238
---
transforms:
- header:
    stamp:
      sec: 100
      nanosec: 1000000
    frame_id: map
  child_frame_id: odom
  transform:
    translation:
      x: 1.4700067507968167e-05
      y: -8.018590862212218e-07
      z: -0.0041433676463778655
    rotation:
      x: -9.793041486603988e-05
      y: -0.001156099269225359
      z: 1.1323597611272557e-07
      w: 0.9999993269218238
---
transforms:
- header:
    stamp:
      sec: 100
      nanosec: 1000000
    frame_id: map
  child_frame_id: odom
  transform:
    translation:
      x: 1.4700067507968167e-05
      y: -8.018590862212218e-07
      z: -0.0041433676463778655
    rotation:
      x: -9.793041486603988e-05
      y: -0.001156099269225359
      z: 1.1323597611272557e-07
      w: 0.9999993269218238
---
transforms:
- header:
    stamp:
      sec: 100
      nanosec: 1000000
    frame_id: map
  child_frame_id: odom
  transform:
    translation:
      x: 1.4700067507968167e-05
      y: -8.018590862212218e-07
      z: -0.0041433676463778655
    rotation:
      x: -9.793041486603988e-05
      y: -0.001156099269225359
      z: 1.1323597611272557e-07
      w: 0.9999993269218238
---
transforms:
- header:
    stamp:
      sec: 100
      nanosec: 1000000
    frame_id: map
  child_frame_id: odom
  transform:
    translation:
      x: 1.4700067507968167e-05
      y: -8.018590862212218e-07
      z: -0.0041433676463778655
    rotation:
      x: -9.793041486603988e-05
      y: -0.001156099269225359
      z: 1.1323597611272557e-07
      w: 0.9999993269218238
---
transforms:
- header:
    stamp:
      sec: 100
      nanosec: 1000000
    frame_id: map
  child_frame_id: odom
  transform:
    translation:
      x: 1.4700067507968167e-05
      y: -8.018590862212218e-07
      z: -0.0041433676463778655
    rotation:
      x: -9.793041486603988e-05
      y: -0.001156099269225359
      z: 1.1323597611272557e-07
      w: 0.9999993269218238
---
transforms:
- header:
    stamp:
      sec: 100
      nanosec: 1000000
    frame_id: map
  child_frame_id: odom
  transform:
    translation:
      x: 1.4700067507968167e-05
      y: -8.018590862212218e-07
      z: -0.0041433676463778655
    rotation:
      x: -9.793041486603988e-05
      y: -0.001156099269225359
      z: 1.1323597611272557e-07
      w: 0.9999993269218238
---
transforms:
- header:
    stamp:
      sec: 100
      nanosec: 1000000
    frame_id: map
  child_frame_id: odom
  transform:
    translation:
      x: 1.4700067507968167e-05
      y: -8.018590862212218e-07
      z: -0.0041433676463778655
    rotation:
      x: -9.793041486603988e-05
      y: -0.001156099269225359
      z: 1.1323597611272557e-07
      w: 0.9999993269218238
---
transforms:
- header:
    stamp:
      sec: 100
      nanosec: 1000000
    frame_id: map
  child_frame_id: odom
  transform:
    translation:
      x: 1.4700067507968167e-05
      y: -8.018590862212218e-07
      z: -0.0041433676463778655
    rotation:
      x: -9.793041486603988e-05
      y: -0.001156099269225359
      z: 1.1323597611272557e-07
      w: 0.9999993269218238
---
transforms:
- header:
    stamp:
      sec: 100
      nanosec: 1000000
    frame_id: map
  child_frame_id: odom
  transform:
    translation:
      x: 1.4700067507968167e-05
      y: -8.018590862212218e-07
      z: -0.0041433676463778655
    rotation:
      x: -9.793041486603988e-05
      y: -0.001156099269225359
      z: 1.1323597611272557e-07
      w: 0.9999993269218238
---
transforms:
- header:
    stamp:
      sec: 100
      nanosec: 1000000
    frame_id: map
  child_frame_id: odom
  transform:
    translation:
      x: 1.4700067507968167e-05
      y: -8.018590862212218e-07
      z: -0.0041433676463778655
    rotation:
      x: -9.793041486603988e-05
      y: -0.001156099269225359
      z: 1.1323597611272557e-07
      w: 0.9999993269218238
---
transforms:
- header:
    stamp:
      sec: 100
      nanosec: 1000000
    frame_id: map
  child_frame_id: odom
  transform:
    translation:
      x: 1.4700067507968167e-05
      y: -8.018590862212218e-07
      z: -0.0041433676463778655
    rotation:
      x: -9.793041486603988e-05
      y: -0.001156099269225359
      z: 1.1323597611272557e-07
      w: 0.9999993269218238
---
transforms:
- header:
    stamp:
      sec: 100
      nanosec: 1000000
    frame_id: map
  child_frame_id: odom
  transform:
    translation:
      x: 1.4700067507968167e-05
      y: -8.018590862212218e-07
      z: -0.0041433676463778655
    rotation:
      x: -9.793041486603988e-05
      y: -0.001156099269225359
      z: 1.1323597611272557e-07
      w: 0.9999993269218238
---
transforms:
- header:
    stamp:
      sec: 100
      nanosec: 1000000
    frame_id: map
  child_frame_id: odom
  transform:
    translation:
      x: 1.4700067507968167e-05
      y: -8.018590862212218e-07
      z: -0.0041433676463778655
    rotation:
      x: -9.793041486603988e-05
      y: -0.001156099269225359
      z: 1.1323597611272557e-07
      w: 0.9999993269218238
---
transforms:
- header:
    stamp:
      sec: 100
      nanosec: 1000000
    frame_id: map
  child_frame_id: odom
  transform:
    translation:
      x: 1.4700067507968167e-05
      y: -8.018590862212218e-07
      z: -0.0041433676463778655
    rotation:
      x: -9.793041486603988e-05
      y: -0.001156099269225359
      z: 1.1323597611272557e-07
      w: 0.9999993269218238
---
transforms:
- header:
    stamp:
      sec: 100
      nanosec: 1000000
    frame_id: map
  child_frame_id: odom
  transform:
    translation:
      x: 1.4700067507968167e-05
      y: -8.018590862212218e-07
      z: -0.0041433676463778655
    rotation:
      x: -9.793041486603988e-05
      y: -0.001156099269225359
      z: 1.1323597611272557e-07
      w: 0.9999993269218238
---
transforms:
- header:
    stamp:
      sec: 100
      nanosec: 1000000
    frame_id: map
  child_frame_id: odom
  transform:
    translation:
      x: 1.4700067507968167e-05
      y: -8.018590862212218e-07
      z: -0.0041433676463778655
    rotation:
      x: -9.793041486603988e-05
      y: -0.001156099269225359
      z: 1.1323597611272557e-07
      w: 0.9999993269218238
---
transforms:
- header:
    stamp:
      sec: 100
      nanosec: 1000000
    frame_id: map
  child_frame_id: odom
  transform:
    translation:
      x: 1.4700067507968167e-05
      y: -8.018590862212218e-07
      z: -0.0041433676463778655
    rotation:
      x: -9.793041486603988e-05
      y: -0.001156099269225359
      z: 1.1323597611272557e-07
      w: 0.9999993269218238
---
transforms:
- header:
    stamp:
      sec: 100
      nanosec: 1000000
    frame_id: map
  child_frame_id: odom
  transform:
    translation:
      x: 1.4700067507968167e-05
      y: -8.018590862212218e-07
      z: -0.0041433676463778655
    rotation:
      x: -9.793041486603988e-05
      y: -0.001156099269225359
      z: 1.1323597611272557e-07
      w: 0.9999993269218238
---
transforms:
- header:
    stamp:
      sec: 100
      nanosec: 1000000
    frame_id: map
  child_frame_id: odom
  transform:
    translation:
      x: 1.4700067507968167e-05
      y: -8.018590862212218e-07
      z: -0.0041433676463778655
    rotation:
      x: -9.793041486603988e-05
      y: -0.001156099269225359
      z: 1.1323597611272557e-07
      w: 0.9999993269218238
---
transforms:
- header:
    stamp:
      sec: 100
      nanosec: 1000000
    frame_id: map
  child_frame_id: odom
  transform:
    translation:
      x: 1.4700067507968167e-05
      y: -8.018590862212218e-07
      z: -0.0041433676463778655
    rotation:
      x: -9.793041486603988e-05
      y: -0.001156099269225359
      z: 1.1323597611272557e-07
      w: 0.9999993269218238
---
transforms:
- header:
    stamp:
      sec: 100
      nanosec: 1000000
    frame_id: map
  child_frame_id: odom
  transform:
    translation:
      x: 1.4700067507968167e-05
      y: -8.018590862212218e-07
      z: -0.0041433676463778655
    rotation:
      x: -9.793041486603988e-05
      y: -0.001156099269225359
      z: 1.1323597611272557e-07
      w: 0.9999993269218238
---
transforms:
- header:
    stamp:
      sec: 100
      nanosec: 1000000
    frame_id: map
  child_frame_id: odom
  transform:
    translation:
      x: 1.4700067507968167e-05
      y: -8.018590862212218e-07
      z: -0.0041433676463778655
    rotation:
      x: -9.793041486603988e-05
      y: -0.001156099269225359
      z: 1.1323597611272557e-07
      w: 0.9999993269218238
---
transforms:
- header:
    stamp:
      sec: 100
      nanosec: 1000000
    frame_id: map
  child_frame_id: odom
  transform:
    translation:
      x: 1.4700067507968167e-05
      y: -8.018590862212218e-07
      z: -0.0041433676463778655
    rotation:
      x: -9.793041486603988e-05
      y: -0.001156099269225359
      z: 1.1323597611272557e-07
      w: 0.9999993269218238
---
transforms:
- header:
    stamp:
      sec: 100
      nanosec: 1000000
    frame_id: map
  child_frame_id: odom
  transform:
    translation:
      x: 1.4700067507968167e-05
      y: -8.018590862212218e-07
      z: -0.0041433676463778655
    rotation:
      x: -9.793041486603988e-05
      y: -0.001156099269225359
      z: 1.1323597611272557e-07
      w: 0.9999993269218238
---
transforms:
- header:
    stamp:
      sec: 100
      nanosec: 1000000
    frame_id: map
  child_frame_id: odom
  transform:
    translation:
      x: 1.4700067507968167e-05
      y: -8.018590862212218e-07
      z: -0.0041433676463778655
    rotation:
      x: -9.793041486603988e-05
      y: -0.001156099269225359
      z: 1.1323597611272557e-07
      w: 0.9999993269218238
---
transforms:
- header:
    stamp:
      sec: 100
      nanosec: 1000000
    frame_id: map
  child_frame_id: odom
  transform:
    translation:
      x: 1.4700067507968167e-05
      y: -8.018590862212218e-07
      z: -0.0041433676463778655
    rotation:
      x: -9.793041486603988e-05
      y: -0.001156099269225359
      z: 1.1323597611272557e-07
      w: 0.9999993269218238
---
transforms:
- header:
    stamp:
      sec: 100
      nanosec: 1000000
    frame_id: map
  child_frame_id: odom
  transform:
    translation:
      x: 1.4700067507968167e-05
      y: -8.018590862212218e-07
      z: -0.0041433676463778655
    rotation:
      x: -9.793041486603988e-05
      y: -0.001156099269225359
      z: 1.1323597611272557e-07
      w: 0.9999993269218238
---
transforms:
- header:
    stamp:
      sec: 100
      nanosec: 1000000
    frame_id: map
  child_frame_id: odom
  transform:
    translation:
      x: 1.4700067507968167e-05
      y: -8.018590862212218e-07
      z: -0.0041433676463778655
    rotation:
      x: -9.793041486603988e-05
      y: -0.001156099269225359
      z: 1.1323597611272557e-07
      w: 0.9999993269218238
---
transforms:
- header:
    stamp:
      sec: 100
      nanosec: 1000000
    frame_id: map
  child_frame_id: odom
  transform:
    translation:
      x: 1.4700067507968167e-05
      y: -8.018590862212218e-07
      z: -0.0041433676463778655
    rotation:
      x: -9.793041486603988e-05
      y: -0.001156099269225359
      z: 1.1323597611272557e-07
      w: 0.9999993269218238
---
transforms:
- header:
    stamp:
      sec: 100
      nanosec: 1000000
    frame_id: map
  child_frame_id: odom
  transform:
    translation:
      x: 1.4700067507968167e-05
      y: -8.018590862212218e-07
      z: -0.0041433676463778655
    rotation:
      x: -9.793041486603988e-05
      y: -0.001156099269225359
      z: 1.1323597611272557e-07
      w: 0.9999993269218238
---
transforms:
- header:
    stamp:
      sec: 100
      nanosec: 1000000
    frame_id: map
  child_frame_id: odom
  transform:
    translation:
      x: 1.4700067507968167e-05
      y: -8.018590862212218e-07
      z: -0.0041433676463778655
    rotation:
      x: -9.793041486603988e-05
      y: -0.001156099269225359
      z: 1.1323597611272557e-07
      w: 0.9999993269218238
---
transforms:
- header:
    stamp:
      sec: 100
      nanosec: 1000000
    frame_id: map
  child_frame_id: odom
  transform:
    translation:
      x: 1.4700067507968167e-05
      y: -8.018590862212218e-07
      z: -0.0041433676463778655
    rotation:
      x: -9.793041486603988e-05
      y: -0.001156099269225359
      z: 1.1323597611272557e-07
      w: 0.9999993269218238
---
transforms:
- header:
    stamp:
      sec: 100
      nanosec: 1000000
    frame_id: map
  child_frame_id: odom
  transform:
    translation:
      x: 1.4700067507968167e-05
      y: -8.018590862212218e-07
      z: -0.0041433676463778655
    rotation:
      x: -9.793041486603988e-05
      y: -0.001156099269225359
      z: 1.1323597611272557e-07
      w: 0.9999993269218238
---
transforms:
- header:
    stamp:
      sec: 100
      nanosec: 1000000
    frame_id: map
  child_frame_id: odom
  transform:
    translation:
      x: 1.4700067507968167e-05
      y: -8.018590862212218e-07
      z: -0.0041433676463778655
    rotation:
      x: -9.793041486603988e-05
      y: -0.001156099269225359
      z: 1.1323597611272557e-07
      w: 0.9999993269218238
---
transforms:
- header:
    stamp:
      sec: 100
      nanosec: 1000000
    frame_id: map
  child_frame_id: odom
  transform:
    translation:
      x: 1.4700067507968167e-05
      y: -8.018590862212218e-07
      z: -0.0041433676463778655
    rotation:
      x: -9.793041486603988e-05
      y: -0.001156099269225359
      z: 1.1323597611272557e-07
      w: 0.9999993269218238
---
transforms:
- header:
    stamp:
      sec: 100
      nanosec: 1000000
    frame_id: map
  child_frame_id: odom
  transform:
    translation:
      x: 1.4700067507968167e-05
      y: -8.018590862212218e-07
      z: -0.0041433676463778655
    rotation:
      x: -9.793041486603988e-05
      y: -0.001156099269225359
      z: 1.1323597611272557e-07
      w: 0.9999993269218238
---
transforms:
- header:
    stamp:
      sec: 100
      nanosec: 1000000
    frame_id: map
  child_frame_id: odom
  transform:
    translation:
      x: 1.4700067507968167e-05
      y: -8.018590862212218e-07
      z: -0.0041433676463778655
    rotation:
      x: -9.793041486603988e-05
      y: -0.001156099269225359
      z: 1.1323597611272557e-07
      w: 0.9999993269218238
---
transforms:
- header:
    stamp:
      sec: 100
      nanosec: 1000000
    frame_id: map
  child_frame_id: odom
  transform:
    translation:
      x: 1.4700067507968167e-05
      y: -8.018590862212218e-07
      z: -0.0041433676463778655
    rotation:
      x: -9.793041486603988e-05
      y: -0.001156099269225359
      z: 1.1323597611272557e-07
      w: 0.9999993269218238
---
transforms:
- header:
    stamp:
      sec: 100
      nanosec: 1000000
    frame_id: map
  child_frame_id: odom
  transform:
    translation:
      x: 1.4700067507968167e-05
      y: -8.018590862212218e-07
      z: -0.0041433676463778655
    rotation:
      x: -9.793041486603988e-05
      y: -0.001156099269225359
      z: 1.1323597611272557e-07
      w: 0.9999993269218238
---
transforms:
- header:
    stamp:
      sec: 99
      nanosec: 960000000
    frame_id: base_link
  child_frame_id: wheel_left_link
  transform:
    translation:
      x: 0.0
      y: 0.144
      z: 0.023
    rotation:
      x: -0.20647331199759847
      y: 0.6759960118797862
      z: 0.6765345400679604
      w: 0.2066377977292632
- header:
    stamp:
      sec: 99
      nanosec: 960000000
    frame_id: base_link
  child_frame_id: wheel_right_link
  transform:
    translation:
      x: 0.0
      y: -0.144
      z: 0.023
    rotation:
      x: -0.699443062781605
      y: -0.10188836327727194
      z: -0.101969532033755
      w: 0.7000002699229363
---
transforms:
- header:
    stamp:
      sec: 100
      nanosec: 1000000
    frame_id: map
  child_frame_id: odom
  transform:
    translation:
      x: 1.4700067507968167e-05
      y: -8.018590862212218e-07
      z: -0.0041433676463778655
    rotation:
      x: -9.793041486603988e-05
      y: -0.001156099269225359
      z: 1.1323597611272557e-07
      w: 0.9999993269218238
---
transforms:
- header:
    stamp:
      sec: 100
      nanosec: 62000000
    frame_id: odom
  child_frame_id: base_footprint
  transform:
    translation:
      x: -1.805820195851851
      y: -0.33441233927087455
      z: 0.008721978100414864
    rotation:
      x: -0.000413320771650917
      y: 0.0006551696799656627
      z: 0.5535897300954977
      w: 0.8327891753928025
---
transforms:
- header:
    stamp:
      sec: 100
      nanosec: 201000000
    frame_id: map
  child_frame_id: odom
  transform:
    translation:
      x: 1.4700067507968167e-05
      y: -8.018590862212218e-07
      z: -0.0041433676463778655
    rotation:
      x: -9.793041486603988e-05
      y: -0.001156099269225359
      z: 1.1323597611272557e-07
      w: 0.9999993269218238
---
transforms:
- header:
    stamp:
      sec: 100
      nanosec: 201000000
    frame_id: map
  child_frame_id: odom
  transform:
    translation:
      x: 1.4700067507968167e-05
      y: -8.018590862212218e-07
      z: -0.0041433676463778655
    rotation:
      x: -9.793041486603988e-05
      y: -0.001156099269225359
      z: 1.1323597611272557e-07
      w: 0.9999993269218238
---
transforms:
- header:
    stamp:
      sec: 100
      nanosec: 201000000
    frame_id: map
  child_frame_id: odom
  transform:
    translation:
      x: 1.4700067507968167e-05
      y: -8.018590862212218e-07
      z: -0.0041433676463778655
    rotation:
      x: -9.793041486603988e-05
      y: -0.001156099269225359
      z: 1.1323597611272557e-07
      w: 0.9999993269218238
---
transforms:
- header:
    stamp:
      sec: 100
      nanosec: 201000000
    frame_id: map
  child_frame_id: odom
  transform:
    translation:
      x: 1.4700067507968167e-05
      y: -8.018590862212218e-07
      z: -0.0041433676463778655
    rotation:
      x: -9.793041486603988e-05
      y: -0.001156099269225359
      z: 1.1323597611272557e-07
      w: 0.9999993269218238
---
transforms:
- header:
    stamp:
      sec: 100
      nanosec: 201000000
    frame_id: map
  child_frame_id: odom
  transform:
    translation:
      x: 1.4700067507968167e-05
      y: -8.018590862212218e-07
      z: -0.0041433676463778655
    rotation:
      x: -9.793041486603988e-05
      y: -0.001156099269225359
      z: 1.1323597611272557e-07
      w: 0.9999993269218238
---
transforms:
- header:
    stamp:
      sec: 100
      nanosec: 201000000
    frame_id: map
  child_frame_id: odom
  transform:
    translation:
      x: 1.4700067507968167e-05
      y: -8.018590862212218e-07
      z: -0.0041433676463778655
    rotation:
      x: -9.793041486603988e-05
      y: -0.001156099269225359
      z: 1.1323597611272557e-07
      w: 0.9999993269218238
---
transforms:
- header:
    stamp:
      sec: 100
      nanosec: 201000000
    frame_id: map
  child_frame_id: odom
  transform:
    translation:
      x: 1.4700067507968167e-05
      y: -8.018590862212218e-07
      z: -0.0041433676463778655
    rotation:
      x: -9.793041486603988e-05
      y: -0.001156099269225359
      z: 1.1323597611272557e-07
      w: 0.9999993269218238
---
transforms:
- header:
    stamp:
      sec: 100
      nanosec: 96000000
    frame_id: odom
  child_frame_id: base_footprint
  transform:
    translation:
      x: -1.8024907321307169
      y: -0.3262643147889112
      z: 0.008721953505232518
    rotation:
      x: -0.00044828256314925546
      y: 0.0006344736838257307
      z: 0.5617159782060295
      w: 0.8273297748261762
---
transforms:
- header:
    stamp:
      sec: 100
      nanosec: 96000000
    frame_id: base_link
  child_frame_id: wheel_left_link
  transform:
    translation:
      x: 0.0
      y: 0.144
      z: 0.023
    rotation:
      x: 0.04810524942746112
      y: 0.7051863027754831
      z: 0.7057480852346769
      w: -0.04814357218730081
- header:
    stamp:
      sec: 100
      nanosec: 96000000
    frame_id: base_link
  child_frame_id: wheel_right_link
  transform:
    translation:
      x: 0.0
      y: -0.144
      z: 0.023
    rotation:
      x: -0.5980002712009392
      y: 0.37682557276309775
      z: 0.377125768606552
      w: 0.5984766645478202
---
transforms:
- header:
    stamp:
      sec: 100
      nanosec: 201000000
    frame_id: map
  child_frame_id: odom
  transform:
    translation:
      x: 1.4700067507968167e-05
      y: -8.018590862212218e-07
      z: -0.0041433676463778655
    rotation:
      x: -9.793041486603988e-05
      y: -0.001156099269225359
      z: 1.1323597611272557e-07
      w: 0.9999993269218238
---
transforms:
- header:
    stamp:
      sec: 100
      nanosec: 201000000
    frame_id: map
  child_frame_id: odom
  transform:
    translation:
      x: 1.4700067507968167e-05
      y: -8.018590862212218e-07
      z: -0.0041433676463778655
    rotation:
      x: -9.793041486603988e-05
      y: -0.001156099269225359
      z: 1.1323597611272557e-07
      w: 0.9999993269218238
---
transforms:
- header:
    stamp:
      sec: 100
      nanosec: 201000000
    frame_id: map
  child_frame_id: odom
  transform:
    translation:
      x: 1.4700067507968167e-05
      y: -8.018590862212218e-07
      z: -0.0041433676463778655
    rotation:
      x: -9.793041486603988e-05
      y: -0.001156099269225359
      z: 1.1323597611272557e-07
      w: 0.9999993269218238
---
transforms:
- header:
    stamp:
      sec: 100
      nanosec: 201000000
    frame_id: map
  child_frame_id: odom
  transform:
    translation:
      x: 1.4700067507968167e-05
      y: -8.018590862212218e-07
      z: -0.0041433676463778655
    rotation:
      x: -9.793041486603988e-05
      y: -0.001156099269225359
      z: 1.1323597611272557e-07
      w: 0.9999993269218238
---
transforms:
- header:
    stamp:
      sec: 100
      nanosec: 201000000
    frame_id: map
  child_frame_id: odom
  transform:
    translation:
      x: 1.4700067507968167e-05
      y: -8.018590862212218e-07
      z: -0.0041433676463778655
    rotation:
      x: -9.793041486603988e-05
      y: -0.001156099269225359
      z: 1.1323597611272557e-07
      w: 0.9999993269218238
---
transforms:
- header:
    stamp:
      sec: 100
      nanosec: 201000000
    frame_id: map
  child_frame_id: odom
  transform:
    translation:
      x: 1.4700067507968167e-05
      y: -8.018590862212218e-07
      z: -0.0041433676463778655
    rotation:
      x: -9.793041486603988e-05
      y: -0.001156099269225359
      z: 1.1323597611272557e-07
      w: 0.9999993269218238
---
transforms:
- header:
    stamp:
      sec: 100
      nanosec: 201000000
    frame_id: map
  child_frame_id: odom
  transform:
    translation:
      x: 1.4700067507968167e-05
      y: -8.018590862212218e-07
      z: -0.0041433676463778655
    rotation:
      x: -9.793041486603988e-05
      y: -0.001156099269225359
      z: 1.1323597611272557e-07
      w: 0.9999993269218238
---
transforms:
- header:
    stamp:
      sec: 100
      nanosec: 201000000
    frame_id: map
  child_frame_id: odom
  transform:
    translation:
      x: 1.4700067507968167e-05
      y: -8.018590862212218e-07
      z: -0.0041433676463778655
    rotation:
      x: -9.793041486603988e-05
      y: -0.001156099269225359
      z: 1.1323597611272557e-07
      w: 0.9999993269218238
---
transforms:
- header:
    stamp:
      sec: 100
      nanosec: 201000000
    frame_id: map
  child_frame_id: odom
  transform:
    translation:
      x: 1.4700067507968167e-05
      y: -8.018590862212218e-07
      z: -0.0041433676463778655
    rotation:
      x: -9.793041486603988e-05
      y: -0.001156099269225359
      z: 1.1323597611272557e-07
      w: 0.9999993269218238
---
transforms:
- header:
    stamp:
      sec: 100
      nanosec: 201000000
    frame_id: map
  child_frame_id: odom
  transform:
    translation:
      x: 1.4700067507968167e-05
      y: -8.018590862212218e-07
      z: -0.0041433676463778655
    rotation:
      x: -9.793041486603988e-05
      y: -0.001156099269225359
      z: 1.1323597611272557e-07
      w: 0.9999993269218238
---
transforms:
- header:
    stamp:
      sec: 100
      nanosec: 201000000
    frame_id: map
  child_frame_id: odom
  transform:
    translation:
      x: 1.4700067507968167e-05
      y: -8.018590862212218e-07
      z: -0.0041433676463778655
    rotation:
      x: -9.793041486603988e-05
      y: -0.001156099269225359
      z: 1.1323597611272557e-07
      w: 0.9999993269218238
---
transforms:
- header:
    stamp:
      sec: 100
      nanosec: 201000000
    frame_id: map
  child_frame_id: odom
  transform:
    translation:
      x: 1.4700067507968167e-05
      y: -8.018590862212218e-07
      z: -0.0041433676463778655
    rotation:
      x: -9.793041486603988e-05
      y: -0.001156099269225359
      z: 1.1323597611272557e-07
      w: 0.9999993269218238
---
transforms:
- header:
    stamp:
      sec: 100
      nanosec: 201000000
    frame_id: map
  child_frame_id: odom
  transform:
    translation:
      x: 1.4700067507968167e-05
      y: -8.018590862212218e-07
      z: -0.0041433676463778655
    rotation:
      x: -9.793041486603988e-05
      y: -0.001156099269225359
      z: 1.1323597611272557e-07
      w: 0.9999993269218238
---
transforms:
- header:
    stamp:
      sec: 100
      nanosec: 201000000
    frame_id: map
  child_frame_id: odom
  transform:
    translation:
      x: 1.4700067507968167e-05
      y: -8.018590862212218e-07
      z: -0.0041433676463778655
    rotation:
      x: -9.793041486603988e-05
      y: -0.001156099269225359
      z: 1.1323597611272557e-07
      w: 0.9999993269218238
---
transforms:
- header:
    stamp:
      sec: 100
      nanosec: 201000000
    frame_id: map
  child_frame_id: odom
  transform:
    translation:
      x: 1.4700067507968167e-05
      y: -8.018590862212218e-07
      z: -0.0041433676463778655
    rotation:
      x: -9.793041486603988e-05
      y: -0.001156099269225359
      z: 1.1323597611272557e-07
      w: 0.9999993269218238
---
transforms:
- header:
    stamp:
      sec: 100
      nanosec: 201000000
    frame_id: map
  child_frame_id: odom
  transform:
    translation:
      x: 1.4700067507968167e-05
      y: -8.018590862212218e-07
      z: -0.0041433676463778655
    rotation:
      x: -9.793041486603988e-05
      y: -0.001156099269225359
      z: 1.1323597611272557e-07
      w: 0.9999993269218238
---
transforms:
- header:
    stamp:
      sec: 100
      nanosec: 201000000
    frame_id: map
  child_frame_id: odom
  transform:
    translation:
      x: 1.4700067507968167e-05
      y: -8.018590862212218e-07
      z: -0.0041433676463778655
    rotation:
      x: -9.793041486603988e-05
      y: -0.001156099269225359
      z: 1.1323597611272557e-07
      w: 0.9999993269218238
---
transforms:
- header:
    stamp:
      sec: 100
      nanosec: 201000000
    frame_id: map
  child_frame_id: odom
  transform:
    translation:
      x: 1.4700067507968167e-05
      y: -8.018590862212218e-07
      z: -0.0041433676463778655
    rotation:
      x: -9.793041486603988e-05
      y: -0.001156099269225359
      z: 1.1323597611272557e-07
      w: 0.9999993269218238
---
transforms:
- header:
    stamp:
      sec: 100
      nanosec: 201000000
    frame_id: map
  child_frame_id: odom
  transform:
    translation:
      x: 1.4700067507968167e-05
      y: -8.018590862212218e-07
      z: -0.0041433676463778655
    rotation:
      x: -9.793041486603988e-05
      y: -0.001156099269225359
      z: 1.1323597611272557e-07
      w: 0.9999993269218238
---
transforms:
- header:
    stamp:
      sec: 100
      nanosec: 201000000
    frame_id: map
  child_frame_id: odom
  transform:
    translation:
      x: 1.4700067507968167e-05
      y: -8.018590862212218e-07
      z: -0.0041433676463778655
    rotation:
      x: -9.793041486603988e-05
      y: -0.001156099269225359
      z: 1.1323597611272557e-07
      w: 0.9999993269218238
---
transforms:
- header:
    stamp:
      sec: 100
      nanosec: 201000000
    frame_id: map
  child_frame_id: odom
  transform:
    translation:
      x: 1.4700067507968167e-05
      y: -8.018590862212218e-07
      z: -0.0041433676463778655
    rotation:
      x: -9.793041486603988e-05
      y: -0.001156099269225359
      z: 1.1323597611272557e-07
      w: 0.9999993269218238
---
transforms:
- header:
    stamp:
      sec: 100
      nanosec: 201000000
    frame_id: map
  child_frame_id: odom
  transform:
    translation:
      x: 1.4700067507968167e-05
      y: -8.018590862212218e-07
      z: -0.0041433676463778655
    rotation:
      x: -9.793041486603988e-05
      y: -0.001156099269225359
      z: 1.1323597611272557e-07
      w: 0.9999993269218238
---
transforms:
- header:
    stamp:
      sec: 100
      nanosec: 201000000
    frame_id: map
  child_frame_id: odom
  transform:
    translation:
      x: 1.4700067507968167e-05
      y: -8.018590862212218e-07
      z: -0.0041433676463778655
    rotation:
      x: -9.793041486603988e-05
      y: -0.001156099269225359
      z: 1.1323597611272557e-07
      w: 0.9999993269218238
---
transforms:
- header:
    stamp:
      sec: 100
      nanosec: 201000000
    frame_id: map
  child_frame_id: odom
  transform:
    translation:
      x: 1.4700067507968167e-05
      y: -8.018590862212218e-07
      z: -0.0041433676463778655
    rotation:
      x: -9.793041486603988e-05
      y: -0.001156099269225359
      z: 1.1323597611272557e-07
      w: 0.9999993269218238
---
transforms:
- header:
    stamp:
      sec: 100
      nanosec: 201000000
    frame_id: map
  child_frame_id: odom
  transform:
    translation:
      x: 1.4700067507968167e-05
      y: -8.018590862212218e-07
      z: -0.0041433676463778655
    rotation:
      x: -9.793041486603988e-05
      y: -0.001156099269225359
      z: 1.1323597611272557e-07
      w: 0.9999993269218238
---
transforms:
- header:
    stamp:
      sec: 100
      nanosec: 201000000
    frame_id: map
  child_frame_id: odom
  transform:
    translation:
      x: 1.4700067507968167e-05
      y: -8.018590862212218e-07
      z: -0.0041433676463778655
    rotation:
      x: -9.793041486603988e-05
      y: -0.001156099269225359
      z: 1.1323597611272557e-07
      w: 0.9999993269218238
---
transforms:
- header:
    stamp:
      sec: 100
      nanosec: 201000000
    frame_id: map
  child_frame_id: odom
  transform:
    translation:
      x: 1.4700067507968167e-05
      y: -8.018590862212218e-07
      z: -0.0041433676463778655
    rotation:
      x: -9.793041486603988e-05
      y: -0.001156099269225359
      z: 1.1323597611272557e-07
      w: 0.9999993269218238
---
transforms:
- header:
    stamp:
      sec: 100
      nanosec: 201000000
    frame_id: map
  child_frame_id: odom
  transform:
    translation:
      x: 1.4700067507968167e-05
      y: -8.018590862212218e-07
      z: -0.0041433676463778655
    rotation:
      x: -9.793041486603988e-05
      y: -0.001156099269225359
      z: 1.1323597611272557e-07
      w: 0.9999993269218238
---
transforms:
- header:
    stamp:
      sec: 100
      nanosec: 201000000
    frame_id: map
  child_frame_id: odom
  transform:
    translation:
      x: 1.4700067507968167e-05
      y: -8.018590862212218e-07
      z: -0.0041433676463778655
    rotation:
      x: -9.793041486603988e-05
      y: -0.001156099269225359
      z: 1.1323597611272557e-07
      w: 0.9999993269218238
---
transforms:
- header:
    stamp:
      sec: 100
      nanosec: 201000000
    frame_id: map
  child_frame_id: odom
  transform:
    translation:
      x: 1.4700067507968167e-05
      y: -8.018590862212218e-07
      z: -0.0041433676463778655
    rotation:
      x: -9.793041486603988e-05
      y: -0.001156099269225359
      z: 1.1323597611272557e-07
      w: 0.9999993269218238
---
